time,.header.seq,.header.stamp.secs,.header.stamp.nsecs,.header.frame_id,.orientation.x,.orientation.y,.orientation.z,.orientation.w,.orientation_covariance,.angular_velocity.x,.angular_velocity.y,.angular_velocity.z,.angular_velocity_covariance,.linear_acceleration.x,.linear_acceleration.y,.linear_acceleration.z,.linear_acceleration_covariance
1970/01/01/01:00:06.594000,647,6,540000000,base,-0.000695972079876,-0.00601059844337,0.00876530940854,0.999943277231,"(2.6030820491461885e-07, 0.0, 0.0, 0.0, 2.6030820491461885e-07, 0.0, 0.0, 0.0, 0.0)",-0.00641284492516,-0.00680783610769,-0.00346108640169,"(2.5e-05, 0.0, 0.0, 0.0, 2.5e-05, 0.0, 0.0, 0.0, 2.5e-05)",0.122053330267,-0.00861798634919,9.79295796485,"(2.5e-05, 0.0, 0.0, 0.0, 2.5e-05, 0.0, 0.0, 0.0, 2.5e-05)"
1970/01/01/01:00:06.594000,648,6,550000000,base,-0.000695965077782,-0.00601059437567,0.00876524407785,0.999943277833,"(2.6030820491461885e-07, 0.0, 0.0, 0.0, 2.6030820491461885e-07, 0.0, 0.0, 0.0, 0.0)",-0.00363857591816,-0.00352086413273,-0.00976799454025,"(2.5e-05, 0.0, 0.0, 0.0, 2.5e-05, 0.0, 0.0, 0.0, 2.5e-05)",0.121740889498,-0.0116194926572,9.80206538997,"(2.5e-05, 0.0, 0.0, 0.0, 2.5e-05, 0.0, 0.0, 0.0, 2.5e-05)"
1970/01/01/01:00:06.594000,649,6,560000000,base,-0.000695933750985,-0.00601069430365,0.00876517841944,0.99994327783,"(2.6030820491461885e-07, 0.0, 0.0, 0.0, 2.6030820491461885e-07, 0.0, 0.0, 0.0, 0.0)",-0.00616493562965,-0.00521366969671,-0.00808299806729,"(2.5e-05, 0.0, 0.0, 0.0, 2.5e-05, 0.0, 0.0, 0.0, 2.5e-05)",0.112388059647,-0.016798978223,9.79514987346,"(2.5e-05, 0.0, 0.0, 0.0, 2.5e-05, 0.0, 0.0, 0.0, 2.5e-05)"
1970/01/01/01:00:06.594000,650,6,570000000,base,-0.000695876535293,-0.00601075242284,0.00876511256089,0.999943278098,"(2.6030820491461885e-07, 0.0, 0.0, 0.0, 2.6030820491461885e-07, 0.0, 0.0, 0.0, 0.0)",0.00734148162107,0.00187537131212,-0.0101812966199,"(2.5e-05, 0.0, 0.0, 0.0, 2.5e-05, 0.0, 0.0, 0.0, 2.5e-05)",0.117856538965,-0.00513208810747,9.80376055332,"(2.5e-05, 0.0, 0.0, 0.0, 2.5e-05, 0.0, 0.0, 0.0, 2.5e-05)"
1970/01/01/01:00:06.594000,651,6,580000000,base,-0.000695859541038,-0.00601078059638,0.00876504686086,0.999943278516,"(2.6030820491461885e-07, 0.0, 0.0, 0.0, 2.6030820491461885e-07, 0.0, 0.0, 0.0, 0.0)",-0.000892702620561,-0.00377330526455,-0.00978402324505,"(2.5e-05, 0.0, 0.0, 0.0, 2.5e-05, 0.0, 0.0, 0.0, 2.5e-05)",0.114571003692,-0.0135688334133,9.8013220159,"(2.5e-05, 0.0, 0.0, 0.0, 2.5e-05, 0.0, 0.0, 0.0, 2.5e-05)"
1970/01/01/01:00:06.594000,652,6,590000000,base,-0.000695902633507,-0.006010857009,0.00876498135969,0.999943278601,"(2.6030820491461885e-07, 0.0, 0.0, 0.0, 2.6030820491461885e-07, 0.0, 0.0, 0.0, 0.0)",0.000751461320004,0.000658269635375,-0.0115072760371,"(2.5e-05, 0.0, 0.0, 0.0, 2.5e-05, 0.0, 0.0, 0.0, 2.5e-05)",0.115182998592,-0.0171589360724,9.79923784056,"(2.5e-05, 0.0, 0.0, 0.0, 2.5e-05, 0.0, 0.0, 0.0, 2.5e-05)"
1970/01/01/01:00:06.600000,653,6,600000000,base,-0.000695919006856,-0.00601088679813,0.00876491566377,0.999943278986,"(2.6030820491461885e-07, 0.0, 0.0, 0.0, 2.6030820491461885e-07, 0.0, 0.0, 0.0, 0.0)",0.00241672815866,-0.0110405123353,-0.011074976772,"(2.5e-05, 0.0, 0.0, 0.0, 2.5e-05, 0.0, 0.0, 0.0, 2.5e-05)",0.123290298273,-0.0166534784502,9.79610641908,"(2.5e-05, 0.0, 0.0, 0.0, 2.5e-05, 0.0, 0.0, 0.0, 2.5e-05)"
1970/01/01/01:00:06.610000,654,6,610000000,base,-0.00069584550231,-0.00601092105569,0.00876484937651,0.999943279413,"(2.6030820491461885e-07, 0.0, 0.0, 0.0, 2.6030820491461885e-07, 0.0, 0.0, 0.0, 0.0)",0.00457156543465,-0.00473214922738,-0.0177941820009,"(2.5e-05, 0.0, 0.0, 0.0, 2.5e-05, 0.0, 0.0, 0.0, 2.5e-05)",0.118511747334,-0.0149344812038,9.79944337611,"(2.5e-05, 0.0, 0.0, 0.0, 2.5e-05, 0.0, 0.0, 0.0, 2.5e-05)"
1970/01/01/01:00:06.620000,655,6,620000000,base,-0.000695856662745,-0.00601098973169,0.00876478344284,0.99994327957,"(2.6030820491461885e-07, 0.0, 0.0, 0.0, 2.6030820491461885e-07, 0.0, 0.0, 0.0, 0.0)",0.000316181518835,-0.00127835887321,-0.0107103004249,"(2.5e-05, 0.0, 0.0, 0.0, 2.5e-05, 0.0, 0.0, 0.0, 2.5e-05)",0.121052562637,-0.0153994011642,9.798622105,"(2.5e-05, 0.0, 0.0, 0.0, 2.5e-05, 0.0, 0.0, 0.0, 2.5e-05)"
1970/01/01/01:00:06.634000,656,6,630000000,base,-0.000695957828145,-0.00601112736341,0.00876471786234,0.999943279247,"(2.6030820491461885e-07, 0.0, 0.0, 0.0, 2.6030820491461885e-07, 0.0, 0.0, 0.0, 0.0)",0.00337138452253,-0.00852383496796,-0.00578417105955,"(2.5e-05, 0.0, 0.0, 0.0, 2.5e-05, 0.0, 0.0, 0.0, 2.5e-05)",0.119657924704,-0.00849164742483,9.80531201772,"(2.5e-05, 0.0, 0.0, 0.0, 2.5e-05, 0.0, 0.0, 0.0, 2.5e-05)"
1970/01/01/01:00:06.640000,657,6,640000000,base,-0.00069596876617,-0.00601123112198,0.00876465172888,0.999943279195,"(2.6030820491461885e-07, 0.0, 0.0, 0.0, 2.6030820491461885e-07, 0.0, 0.0, 0.0, 0.0)",0.00119240776489,-0.00238996163858,-0.0102069331429,"(2.5e-05, 0.0, 0.0, 0.0, 2.5e-05, 0.0, 0.0, 0.0, 2.5e-05)",0.117753982086,-0.0103417454913,9.80327947615,"(2.5e-05, 0.0, 0.0, 0.0, 2.5e-05, 0.0, 0.0, 0.0, 2.5e-05)"
1970/01/01/01:00:06.650000,658,6,650000000,base,-0.000696017887416,-0.00601122759031,0.00876458582593,0.99994327976,"(2.6030820491461885e-07, 0.0, 0.0, 0.0, 2.6030820491461885e-07, 0.0, 0.0, 0.0, 0.0)",0.000122863480304,0.000549203890386,-0.00369231141985,"(2.5e-05, 0.0, 0.0, 0.0, 2.5e-05, 0.0, 0.0, 0.0, 2.5e-05)",0.113802112907,-0.0196681080735,9.80195429933,"(2.5e-05, 0.0, 0.0, 0.0, 2.5e-05, 0.0, 0.0, 0.0, 2.5e-05)"
1970/01/01/01:00:06.660000,659,6,660000000,base,-0.000696002471304,-0.00601125868982,0.00876451945294,0.999943280166,"(2.6030820491461885e-07, 0.0, 0.0, 0.0, 2.6030820491461885e-07, 0.0, 0.0, 0.0, 0.0)",0.00414939780669,0.000842191281843,-0.012558869447,"(2.5e-05, 0.0, 0.0, 0.0, 2.5e-05, 0.0, 0.0, 0.0, 2.5e-05)",0.115663450949,-0.0176021835677,9.79229665559,"(2.5e-05, 0.0, 0.0, 0.0, 2.5e-05, 0.0, 0.0, 0.0, 2.5e-05)"
1970/01/01/01:00:06.672000,660,6,670000000,base,-0.00069599185731,-0.00601135953174,0.00876445296475,0.99994328015,"(2.6030820491461885e-07, 0.0, 0.0, 0.0, 2.6030820491461885e-07, 0.0, 0.0, 0.0, 0.0)",-0.00129815617032,-0.00106792089535,-0.0125985603016,"(2.5e-05, 0.0, 0.0, 0.0, 2.5e-05, 0.0, 0.0, 0.0, 2.5e-05)",0.133437377163,-0.00934730308282,9.79505175719,"(2.5e-05, 0.0, 0.0, 0.0, 2.5e-05, 0.0, 0.0, 0.0, 2.5e-05)"
1970/01/01/01:00:06.680000,661,6,680000000,base,-0.000695929211725,-0.00601140842368,0.00876438615881,0.999943280485,"(2.6030820491461885e-07, 0.0, 0.0, 0.0, 2.6030820491461885e-07, 0.0, 0.0, 0.0, 0.0)",0.0059389668509,-0.0068066702394,0.00157867539229,"(2.5e-05, 0.0, 0.0, 0.0, 2.5e-05, 0.0, 0.0, 0.0, 2.5e-05)",0.120878732036,-0.0124657289759,9.80147077439,"(2.5e-05, 0.0, 0.0, 0.0, 2.5e-05, 0.0, 0.0, 0.0, 2.5e-05)"
1970/01/01/01:00:06.690000,662,6,690000000,base,-0.000695983612185,-0.00601152901039,0.00876431986315,0.999943280303,"(2.6030820491461885e-07, 0.0, 0.0, 0.0, 2.6030820491461885e-07, 0.0, 0.0, 0.0, 0.0)",0.00207473120202,-0.011523240254,-0.0139917620384,"(2.5e-05, 0.0, 0.0, 0.0, 2.5e-05, 0.0, 0.0, 0.0, 2.5e-05)",0.116360618945,-0.0128747401292,9.800130628,"(2.5e-05, 0.0, 0.0, 0.0, 2.5e-05, 0.0, 0.0, 0.0, 2.5e-05)"
1970/01/01/01:00:06.700000,663,6,700000000,base,-0.000695951324551,-0.00601164406907,0.00876425301703,0.99994328022,"(2.6030820491461885e-07, 0.0, 0.0, 0.0, 2.6030820491461885e-07, 0.0, 0.0, 0.0, 0.0)",-0.00348832970402,-7.59769903695e-05,-0.00556314459272,"(2.5e-05, 0.0, 0.0, 0.0, 2.5e-05, 0.0, 0.0, 0.0, 2.5e-05)",0.124267889184,-0.021634940472,9.8028668011,"(2.5e-05, 0.0, 0.0, 0.0, 2.5e-05, 0.0, 0.0, 0.0, 2.5e-05)"
1970/01/01/01:00:06.710000,664,6,710000000,base,-0.000695967068967,-0.00601178994969,0.00876418633773,0.999943279916,"(2.6030820491461885e-07, 0.0, 0.0, 0.0, 2.6030820491461885e-07, 0.0, 0.0, 0.0, 0.0)",-0.00998752138782,-0.00468191106328,-0.0148916235422,"(2.5e-05, 0.0, 0.0, 0.0, 2.5e-05, 0.0, 0.0, 0.0, 2.5e-05)",0.114643247162,-0.0176336886841,9.80438308071,"(2.5e-05, 0.0, 0.0, 0.0, 2.5e-05, 0.0, 0.0, 0.0, 2.5e-05)"
1970/01/01/01:00:06.720000,665,6,720000000,base,-0.000695928587553,-0.00601190921001,0.00876411931066,0.999943279813,"(2.6030820491461885e-07, 0.0, 0.0, 0.0, 2.6030820491461885e-07, 0.0, 0.0, 0.0, 0.0)",0.00625278655394,0.00069892106177,-0.0175565153686,"(2.5e-05, 0.0, 0.0, 0.0, 2.5e-05, 0.0, 0.0, 0.0, 2.5e-05)",0.115035310809,-0.0217330001425,9.79263133149,"(2.5e-05, 0.0, 0.0, 0.0, 2.5e-05, 0.0, 0.0, 0.0, 2.5e-05)"
1970/01/01/01:00:06.730000,666,6,730000000,base,-0.000695915012283,-0.00601195941765,0.0087640524164,0.999943280107,"(2.6030820491461885e-07, 0.0, 0.0, 0.0, 2.6030820491461885e-07, 0.0, 0.0, 0.0, 0.0)",0.00206887497685,-0.000575102891124,-0.0125930574963,"(2.5e-05, 0.0, 0.0, 0.0, 2.5e-05, 0.0, 0.0, 0.0, 2.5e-05)",0.108548976845,-0.00592453752435,9.7943623493,"(2.5e-05, 0.0, 0.0, 0.0, 2.5e-05, 0.0, 0.0, 0.0, 2.5e-05)"
1970/01/01/01:00:06.741000,667,6,740000000,base,-0.000695909180688,-0.00601200516439,0.00876398550125,0.999943280423,"(2.6030820491461885e-07, 0.0, 0.0, 0.0, 2.6030820491461885e-07, 0.0, 0.0, 0.0, 0.0)",0.00382360882236,-0.00114403821381,-0.00344318740701,"(2.5e-05, 0.0, 0.0, 0.0, 2.5e-05, 0.0, 0.0, 0.0, 2.5e-05)",0.115539378176,-0.0125376537855,9.78833983965,"(2.5e-05, 0.0, 0.0, 0.0, 2.5e-05, 0.0, 0.0, 0.0, 2.5e-05)"
1970/01/01/01:00:06.750000,668,6,750000000,base,-0.000695875361538,-0.00601216167075,0.00876391826154,0.999943280095,"(2.6030820491461885e-07, 0.0, 0.0, 0.0, 2.6030820491461885e-07, 0.0, 0.0, 0.0, 0.0)",0.00772081623948,-0.0118818749194,-0.0158451284264,"(2.5e-05, 0.0, 0.0, 0.0, 2.5e-05, 0.0, 0.0, 0.0, 2.5e-05)",0.11074819379,-0.0144131971127,9.79864476384,"(2.5e-05, 0.0, 0.0, 0.0, 2.5e-05, 0.0, 0.0, 0.0, 2.5e-05)"
1970/01/01/01:00:06.760000,669,6,760000000,base,-0.000695893193852,-0.00601216079474,0.00876385138852,0.999943280673,"(2.6030820491461885e-07, 0.0, 0.0, 0.0, 2.6030820491461885e-07, 0.0, 0.0, 0.0, 0.0)",-0.00571583501551,-0.00741117661313,-0.0122978394637,"(2.5e-05, 0.0, 0.0, 0.0, 2.5e-05, 0.0, 0.0, 0.0, 2.5e-05)",0.118348576019,-0.0190740731946,9.79193027074,"(2.5e-05, 0.0, 0.0, 0.0, 2.5e-05, 0.0, 0.0, 0.0, 2.5e-05)"
1970/01/01/01:00:06.770000,670,6,770000000,base,-0.000695760435616,-0.00601212873134,0.00876378364203,0.999943281552,"(2.6030820491461885e-07, 0.0, 0.0, 0.0, 2.6030820491461885e-07, 0.0, 0.0, 0.0, 0.0)",0.000748916563833,-0.00205642535187,-0.0158888498215,"(2.5e-05, 0.0, 0.0, 0.0, 2.5e-05, 0.0, 0.0, 0.0, 2.5e-05)",0.118744813702,-0.0184414356234,9.79771114638,"(2.5e-05, 0.0, 0.0, 0.0, 2.5e-05, 0.0, 0.0, 0.0, 2.5e-05)"
1970/01/01/01:00:06.780000,671,6,780000000,base,-0.000695817591364,-0.00601223395098,0.00876371676229,0.999943281466,"(2.6030820491461885e-07, 0.0, 0.0, 0.0, 2.6030820491461885e-07, 0.0, 0.0, 0.0, 0.0)",-0.00106296868184,-0.0146222908786,-0.0113328653625,"(2.5e-05, 0.0, 0.0, 0.0, 2.5e-05, 0.0, 0.0, 0.0, 2.5e-05)",0.114788064724,-0.0111784747174,9.8061124077,"(2.5e-05, 0.0, 0.0, 0.0, 2.5e-05, 0.0, 0.0, 0.0, 2.5e-05)"
1970/01/01/01:00:06.790000,672,6,790000000,base,-0.000695930403232,-0.00601228855119,0.00876365017665,0.999943281643,"(2.6030820491461885e-07, 0.0, 0.0, 0.0, 2.6030820491461885e-07, 0.0, 0.0, 0.0, 0.0)",0.00217225458963,-0.0100911841376,0.000561034349387,"(2.5e-05, 0.0, 0.0, 0.0, 2.5e-05, 0.0, 0.0, 0.0, 2.5e-05)",0.114493081637,-0.0131135145181,9.80173453003,"(2.5e-05, 0.0, 0.0, 0.0, 2.5e-05, 0.0, 0.0, 0.0, 2.5e-05)"
1970/01/01/01:00:06.801000,673,6,800000000,base,-0.000695963176435,-0.00601238688469,0.00876358304437,0.999943281617,"(2.6030820491461885e-07, 0.0, 0.0, 0.0, 2.6030820491461885e-07, 0.0, 0.0, 0.0, 0.0)",0.00877314360208,0.00333145613401,-0.0177063694497,"(2.5e-05, 0.0, 0.0, 0.0, 2.5e-05, 0.0, 0.0, 0.0, 2.5e-05)",0.117993939467,-0.0226570575638,9.79646724485,"(2.5e-05, 0.0, 0.0, 0.0, 2.5e-05, 0.0, 0.0, 0.0, 2.5e-05)"
1970/01/01/01:00:06.810000,674,6,810000000,base,-0.000696055751331,-0.00601250224099,0.00876351616912,0.999943281445,"(2.6030820491461885e-07, 0.0, 0.0, 0.0, 2.6030820491461885e-07, 0.0, 0.0, 0.0, 0.0)",0.000476797645755,-0.00159254097328,-0.0234592970732,"(2.5e-05, 0.0, 0.0, 0.0, 2.5e-05, 0.0, 0.0, 0.0, 2.5e-05)",0.11853528763,-0.0155308009856,9.7867254355,"(2.5e-05, 0.0, 0.0, 0.0, 2.5e-05, 0.0, 0.0, 0.0, 2.5e-05)"
1970/01/01/01:00:06.819000,675,6,820000000,base,-0.000696070214946,-0.00601253630821,0.00876344887524,0.99994328182,"(2.6030820491461885e-07, 0.0, 0.0, 0.0, 2.6030820491461885e-07, 0.0, 0.0, 0.0, 0.0)",-0.00556647328914,0.00679244984071,-0.00246847161502,"(2.5e-05, 0.0, 0.0, 0.0, 2.5e-05, 0.0, 0.0, 0.0, 2.5e-05)",0.117725595908,-0.0117029955731,9.79386118845,"(2.5e-05, 0.0, 0.0, 0.0, 2.5e-05, 0.0, 0.0, 0.0, 2.5e-05)"
1970/01/01/01:00:06.830000,676,6,830000000,base,-0.000696052808627,-0.00601254924484,0.00876338136559,0.999943282346,"(2.6030820491461885e-07, 0.0, 0.0, 0.0, 2.6030820491461885e-07, 0.0, 0.0, 0.0, 0.0)",-0.00287760327391,-0.000196238028768,-0.0210093654619,"(2.5e-05, 0.0, 0.0, 0.0, 2.5e-05, 0.0, 0.0, 0.0, 2.5e-05)",0.114231523466,-0.0142448883958,9.80123295748,"(2.5e-05, 0.0, 0.0, 0.0, 2.5e-05, 0.0, 0.0, 0.0, 2.5e-05)"
1970/01/01/01:00:06.840000,677,6,840000000,base,-0.00069605897962,-0.00601266808133,0.00876331383261,0.999943282219,"(2.6030820491461885e-07, 0.0, 0.0, 0.0, 2.6030820491461885e-07, 0.0, 0.0, 0.0, 0.0)",0.00800331405423,-0.00255315366053,-0.00774958272378,"(2.5e-05, 0.0, 0.0, 0.0, 2.5e-05, 0.0, 0.0, 0.0, 2.5e-05)",0.123776800784,-0.0199480261056,9.79216819925,"(2.5e-05, 0.0, 0.0, 0.0, 2.5e-05, 0.0, 0.0, 0.0, 2.5e-05)"
1970/01/01/01:00:06.850000,678,6,850000000,base,-0.00069604225274,-0.00601267467517,0.00876324621968,0.999943282784,"(2.6030820491461885e-07, 0.0, 0.0, 0.0, 2.6030820491461885e-07, 0.0, 0.0, 0.0, 0.0)",0.00539701931386,-0.0089178017574,-0.00874411346238,"(2.5e-05, 0.0, 0.0, 0.0, 2.5e-05, 0.0, 0.0, 0.0, 2.5e-05)",0.125261276215,-0.0138292712499,9.80438620277,"(2.5e-05, 0.0, 0.0, 0.0, 2.5e-05, 0.0, 0.0, 0.0, 2.5e-05)"
1970/01/01/01:00:06.861000,679,6,860000000,base,-0.000696007923595,-0.00601279982466,0.00876317834459,0.99994328265,"(2.6030820491461885e-07, 0.0, 0.0, 0.0, 2.6030820491461885e-07, 0.0, 0.0, 0.0, 0.0)",0.00817885468705,0.00121645051636,-0.012898124347,"(2.5e-05, 0.0, 0.0, 0.0, 2.5e-05, 0.0, 0.0, 0.0, 2.5e-05)",0.12063585273,-0.00381290117601,9.81394300671,"(2.5e-05, 0.0, 0.0, 0.0, 2.5e-05, 0.0, 0.0, 0.0, 2.5e-05)"
1970/01/01/01:00:06.870000,680,6,870000000,base,-0.000696089682874,-0.00601286626899,0.00876311111539,0.999943282783,"(2.6030820491461885e-07, 0.0, 0.0, 0.0, 2.6030820491461885e-07, 0.0, 0.0, 0.0, 0.0)",0.00527093508034,0.00659000428253,-0.000316923633284,"(2.5e-05, 0.0, 0.0, 0.0, 2.5e-05, 0.0, 0.0, 0.0, 2.5e-05)",0.115203738997,-0.00820305164807,9.79236353134,"(2.5e-05, 0.0, 0.0, 0.0, 2.5e-05, 0.0, 0.0, 0.0, 2.5e-05)"
1970/01/01/01:00:06.882000,681,6,880000000,base,-0.000696073307112,-0.00601294954006,0.00876304327152,0.999943282888,"(2.6030820491461885e-07, 0.0, 0.0, 0.0, 2.6030820491461885e-07, 0.0, 0.0, 0.0, 0.0)",-0.0113913961939,0.00117683886575,-0.0147205565918,"(2.5e-05, 0.0, 0.0, 0.0, 2.5e-05, 0.0, 0.0, 0.0, 2.5e-05)",0.126379748823,-0.0206905512262,9.79020581382,"(2.5e-05, 0.0, 0.0, 0.0, 2.5e-05, 0.0, 0.0, 0.0, 2.5e-05)"
1970/01/01/01:00:06.890000,682,6,890000000,base,-0.00069593266121,-0.00601303937276,0.0087629746779,0.999943283047,"(2.6030820491461885e-07, 0.0, 0.0, 0.0, 2.6030820491461885e-07, 0.0, 0.0, 0.0, 0.0)",0.0102821917482,-0.00130207523202,-0.00755086212022,"(2.5e-05, 0.0, 0.0, 0.0, 2.5e-05, 0.0, 0.0, 0.0, 2.5e-05)",0.118094965079,-0.0172122999492,9.79882195975,"(2.5e-05, 0.0, 0.0, 0.0, 2.5e-05, 0.0, 0.0, 0.0, 2.5e-05)"
1970/01/01/01:00:06.900000,683,6,900000000,base,-0.000696040316335,-0.00601309633426,0.00876290744467,0.999943283218,"(2.6030820491461885e-07, 0.0, 0.0, 0.0, 2.6030820491461885e-07, 0.0, 0.0, 0.0, 0.0)",-0.00848552754312,0.00110157390523,-0.0136370865815,"(2.5e-05, 0.0, 0.0, 0.0, 2.5e-05, 0.0, 0.0, 0.0, 2.5e-05)",0.113592914408,-0.0155269941864,9.79864318511,"(2.5e-05, 0.0, 0.0, 0.0, 2.5e-05, 0.0, 0.0, 0.0, 2.5e-05)"
1970/01/01/01:00:06.910000,684,6,910000000,base,-0.000696120988522,-0.00601317499892,0.00876283999077,0.99994328328,"(2.6030820491461885e-07, 0.0, 0.0, 0.0, 2.6030820491461885e-07, 0.0, 0.0, 0.0, 0.0)",-0.00369385495085,-0.0137993591773,-0.00776137236189,"(2.5e-05, 0.0, 0.0, 0.0, 2.5e-05, 0.0, 0.0, 0.0, 2.5e-05)",0.116677310397,-0.0223544368507,9.79680270734,"(2.5e-05, 0.0, 0.0, 0.0, 2.5e-05, 0.0, 0.0, 0.0, 2.5e-05)"
1970/01/01/01:00:06.920000,685,6,920000000,base,-0.000696019183139,-0.00601325311506,0.00876277147234,0.999943283482,"(2.6030820491461885e-07, 0.0, 0.0, 0.0, 2.6030820491461885e-07, 0.0, 0.0, 0.0, 0.0)",-0.00439062508832,-0.00541594827933,-0.0104852906948,"(2.5e-05, 0.0, 0.0, 0.0, 2.5e-05, 0.0, 0.0, 0.0, 2.5e-05)",0.129746216465,-0.0177412744971,9.80033301007,"(2.5e-05, 0.0, 0.0, 0.0, 2.5e-05, 0.0, 0.0, 0.0, 2.5e-05)"
1970/01/01/01:00:06.930000,686,6,930000000,base,-0.000696021134247,-0.00601314961784,0.0087627036496,0.999943284697,"(2.6030820491461885e-07, 0.0, 0.0, 0.0, 2.6030820491461885e-07, 0.0, 0.0, 0.0, 0.0)",0.00573633126655,-0.00475012312514,-0.0132000690884,"(2.5e-05, 0.0, 0.0, 0.0, 2.5e-05, 0.0, 0.0, 0.0, 2.5e-05)",0.126414606549,-0.0167687975643,9.79739612548,"(2.5e-05, 0.0, 0.0, 0.0, 2.5e-05, 0.0, 0.0, 0.0, 2.5e-05)"
1970/01/01/01:00:06.940000,687,6,940000000,base,-0.000696095011977,-0.00601330055296,0.00876263594457,0.999943284331,"(2.6030820491461885e-07, 0.0, 0.0, 0.0, 2.6030820491461885e-07, 0.0, 0.0, 0.0, 0.0)",0.00106607870515,-0.0088982570753,-0.0161430487758,"(2.5e-05, 0.0, 0.0, 0.0, 2.5e-05, 0.0, 0.0, 0.0, 2.5e-05)",0.112444290074,-0.00749461878308,9.80300892084,"(2.5e-05, 0.0, 0.0, 0.0, 2.5e-05, 0.0, 0.0, 0.0, 2.5e-05)"
1970/01/01/01:00:06.950000,688,6,950000000,base,-0.000696112145416,-0.00601336448336,0.00876256795662,0.999943284531,"(2.6030820491461885e-07, 0.0, 0.0, 0.0, 2.6030820491461885e-07, 0.0, 0.0, 0.0, 0.0)",-0.00430994767234,-0.00482859505568,-0.0129047176659,"(2.5e-05, 0.0, 0.0, 0.0, 2.5e-05, 0.0, 0.0, 0.0, 2.5e-05)",0.125726380447,-0.0126864871719,9.79053621055,"(2.5e-05, 0.0, 0.0, 0.0, 2.5e-05, 0.0, 0.0, 0.0, 2.5e-05)"
1970/01/01/01:00:06.960000,689,6,960000000,base,-0.000696045788832,-0.00601332213764,0.00876249955543,0.999943285431,"(2.6030820491461885e-07, 0.0, 0.0, 0.0, 2.6030820491461885e-07, 0.0, 0.0, 0.0, 0.0)",0.0053449704192,-0.00443127706185,-0.00700836395832,"(2.5e-05, 0.0, 0.0, 0.0, 2.5e-05, 0.0, 0.0, 0.0, 2.5e-05)",0.116254201696,-0.00917256734995,9.80741120292,"(2.5e-05, 0.0, 0.0, 0.0, 2.5e-05, 0.0, 0.0, 0.0, 2.5e-05)"
1970/01/01/01:00:06.969000,690,6,970000000,base,-0.000695979753054,-0.00601334319049,0.00876243105178,0.999943285951,"(2.6030820491461885e-07, 0.0, 0.0, 0.0, 2.6030820491461885e-07, 0.0, 0.0, 0.0, 0.0)",0.00724494420019,-0.00868745695347,-0.0130751117522,"(2.5e-05, 0.0, 0.0, 0.0, 2.5e-05, 0.0, 0.0, 0.0, 2.5e-05)",0.125157399318,-0.0186943574832,9.79953550602,"(2.5e-05, 0.0, 0.0, 0.0, 2.5e-05, 0.0, 0.0, 0.0, 2.5e-05)"
1970/01/01/01:00:06.980000,691,6,980000000,base,-0.000695834170165,-0.00601333256843,0.00876236208955,0.99994328672,"(2.6030820491461885e-07, 0.0, 0.0, 0.0, 2.6030820491461885e-07, 0.0, 0.0, 0.0, 0.0)",-0.00326219324833,-0.0147022783643,-0.0143427999696,"(2.5e-05, 0.0, 0.0, 0.0, 2.5e-05, 0.0, 0.0, 0.0, 2.5e-05)",0.128044228768,-0.0208535564846,9.79363739421,"(2.5e-05, 0.0, 0.0, 0.0, 2.5e-05, 0.0, 0.0, 0.0, 2.5e-05)"
1970/01/01/01:00:06.990000,692,6,990000000,base,-0.000695924836276,-0.0060133622813,0.00876229436037,0.999943287072,"(2.6030820491461885e-07, 0.0, 0.0, 0.0, 2.6030820491461885e-07, 0.0, 0.0, 0.0, 0.0)",-0.00643498540814,-0.000428679132395,-0.0168376803977,"(2.5e-05, 0.0, 0.0, 0.0, 2.5e-05, 0.0, 0.0, 0.0, 2.5e-05)",0.114147046635,-0.0182477988118,9.79671328429,"(2.5e-05, 0.0, 0.0, 0.0, 2.5e-05, 0.0, 0.0, 0.0, 2.5e-05)"
1970/01/01/01:00:07.000000,693,7,0,base,-0.000695934317915,-0.00601341769481,0.00876222611206,0.99994328733,"(2.6030820491461885e-07, 0.0, 0.0, 0.0, 2.6030820491461885e-07, 0.0, 0.0, 0.0, 0.0)",0.00329173885725,0.000407453562318,-0.0118892878579,"(2.5e-05, 0.0, 0.0, 0.0, 2.5e-05, 0.0, 0.0, 0.0, 2.5e-05)",0.115930058225,-0.0176298635755,9.79848432312,"(2.5e-05, 0.0, 0.0, 0.0, 2.5e-05, 0.0, 0.0, 0.0, 2.5e-05)"
1970/01/01/01:00:07.010000,694,7,10000000,base,-0.00069587162581,-0.00601348952764,0.008762157404,0.999943287544,"(2.6030820491461885e-07, 0.0, 0.0, 0.0, 2.6030820491461885e-07, 0.0, 0.0, 0.0, 0.0)",-0.00131179823188,-0.0112728860223,-0.00667394767917,"(2.5e-05, 0.0, 0.0, 0.0, 2.5e-05, 0.0, 0.0, 0.0, 2.5e-05)",0.109727814667,-0.0280864744886,9.79939150665,"(2.5e-05, 0.0, 0.0, 0.0, 2.5e-05, 0.0, 0.0, 0.0, 2.5e-05)"
1970/01/01/01:00:07.020000,695,7,20000000,base,-0.000695781307495,-0.00601361236222,0.00876208845285,0.999943287472,"(2.6030820491461885e-07, 0.0, 0.0, 0.0, 2.6030820491461885e-07, 0.0, 0.0, 0.0, 0.0)",-0.000379774181182,-0.0180160929488,-0.00994503128402,"(2.5e-05, 0.0, 0.0, 0.0, 2.5e-05, 0.0, 0.0, 0.0, 2.5e-05)",0.117693800714,-0.0140323020043,9.79262537434,"(2.5e-05, 0.0, 0.0, 0.0, 2.5e-05, 0.0, 0.0, 0.0, 2.5e-05)"
1970/01/01/01:00:07.030000,696,7,30000000,base,-0.00069567455839,-0.0060137340835,0.0087620193696,0.99994328742,"(2.6030820491461885e-07, 0.0, 0.0, 0.0, 2.6030820491461885e-07, 0.0, 0.0, 0.0, 0.0)",0.00539895314233,-0.00147349104218,-0.0074962729876,"(2.5e-05, 0.0, 0.0, 0.0, 2.5e-05, 0.0, 0.0, 0.0, 2.5e-05)",0.122487054426,-0.0189506035915,9.80903682618,"(2.5e-05, 0.0, 0.0, 0.0, 2.5e-05, 0.0, 0.0, 0.0, 2.5e-05)"
1970/01/01/01:00:07.040000,697,7,40000000,base,-0.000695575942882,-0.00601381345186,0.00876195032956,0.999943287616,"(2.6030820491461885e-07, 0.0, 0.0, 0.0, 2.6030820491461885e-07, 0.0, 0.0, 0.0, 0.0)",-0.00643522732512,-0.00275374772115,-0.00888259969103,"(2.5e-05, 0.0, 0.0, 0.0, 2.5e-05, 0.0, 0.0, 0.0, 2.5e-05)",0.113554880479,-0.0166060358417,9.80341454102,"(2.5e-05, 0.0, 0.0, 0.0, 2.5e-05, 0.0, 0.0, 0.0, 2.5e-05)"
1970/01/01/01:00:07.050000,698,7,50000000,base,-0.000695610643112,-0.00601387032346,0.0087618820117,0.999943287848,"(2.6030820491461885e-07, 0.0, 0.0, 0.0, 2.6030820491461885e-07, 0.0, 0.0, 0.0, 0.0)",0.00642257932374,0.00112361123573,-0.0108548098363,"(2.5e-05, 0.0, 0.0, 0.0, 2.5e-05, 0.0, 0.0, 0.0, 2.5e-05)",0.118784203737,-0.00685799170703,9.79252543005,"(2.5e-05, 0.0, 0.0, 0.0, 2.5e-05, 0.0, 0.0, 0.0, 2.5e-05)"
1970/01/01/01:00:07.060000,699,7,60000000,base,-0.000695712217888,-0.0060138318389,0.00876181411403,0.999943288604,"(2.6030820491461885e-07, 0.0, 0.0, 0.0, 2.6030820491461885e-07, 0.0, 0.0, 0.0, 0.0)",0.000961362034972,-0.00595850276446,-0.0110640720297,"(2.5e-05, 0.0, 0.0, 0.0, 2.5e-05, 0.0, 0.0, 0.0, 2.5e-05)",0.120330681265,-0.0127869492227,9.78742560296,"(2.5e-05, 0.0, 0.0, 0.0, 2.5e-05, 0.0, 0.0, 0.0, 2.5e-05)"
1970/01/01/01:00:07.071000,700,7,70000000,base,-0.000695786487748,-0.00601384518833,0.00876174597746,0.999943289069,"(2.6030820491461885e-07, 0.0, 0.0, 0.0, 2.6030820491461885e-07, 0.0, 0.0, 0.0, 0.0)",-0.00494357900359,-0.00290908124584,-0.0062363148141,"(2.5e-05, 0.0, 0.0, 0.0, 2.5e-05, 0.0, 0.0, 0.0, 2.5e-05)",0.11606608562,-0.0150709736911,9.80755647247,"(2.5e-05, 0.0, 0.0, 0.0, 2.5e-05, 0.0, 0.0, 0.0, 2.5e-05)"
1970/01/01/01:00:07.080000,701,7,80000000,base,-0.000695846846888,-0.00601398429261,0.008761677609,0.99994328879,"(2.6030820491461885e-07, 0.0, 0.0, 0.0, 2.6030820491461885e-07, 0.0, 0.0, 0.0, 0.0)",0.00535244929569,0.00397598357353,-0.0113908770272,"(2.5e-05, 0.0, 0.0, 0.0, 2.5e-05, 0.0, 0.0, 0.0, 2.5e-05)",0.11464136175,-0.0129489535082,9.80250454454,"(2.5e-05, 0.0, 0.0, 0.0, 2.5e-05, 0.0, 0.0, 0.0, 2.5e-05)"
1970/01/01/01:00:07.090000,702,7,90000000,base,-0.00069582530333,-0.0060140422882,0.00876160882143,0.999943289059,"(2.6030820491461885e-07, 0.0, 0.0, 0.0, 2.6030820491461885e-07, 0.0, 0.0, 0.0, 0.0)",-0.00293616951389,0.00331492765119,-0.0234306502989,"(2.5e-05, 0.0, 0.0, 0.0, 2.5e-05, 0.0, 0.0, 0.0, 2.5e-05)",0.114304939796,-0.00987578644929,9.80822512298,"(2.5e-05, 0.0, 0.0, 0.0, 2.5e-05, 0.0, 0.0, 0.0, 2.5e-05)"
1970/01/01/01:00:07.100000,703,7,100000000,base,-0.00069580565994,-0.00601415173233,0.00876153995955,0.999943289017,"(2.6030820491461885e-07, 0.0, 0.0, 0.0, 2.6030820491461885e-07, 0.0, 0.0, 0.0, 0.0)",-0.000669990682072,-0.00364840899161,-0.0132890237839,"(2.5e-05, 0.0, 0.0, 0.0, 2.5e-05, 0.0, 0.0, 0.0, 2.5e-05)",0.116757312116,-0.0214724080202,9.80334446272,"(2.5e-05, 0.0, 0.0, 0.0, 2.5e-05, 0.0, 0.0, 0.0, 2.5e-05)"
1970/01/01/01:00:07.110000,704,7,110000000,base,-0.000695815183825,-0.00601423649963,0.00876147124579,0.999943289103,"(2.6030820491461885e-07, 0.0, 0.0, 0.0, 2.6030820491461885e-07, 0.0, 0.0, 0.0, 0.0)",0.00173558282947,-0.0012326957435,-0.00928124918509,"(2.5e-05, 0.0, 0.0, 0.0, 2.5e-05, 0.0, 0.0, 0.0, 2.5e-05)",0.121349280573,-0.0107399335897,9.80295639968,"(2.5e-05, 0.0, 0.0, 0.0, 2.5e-05, 0.0, 0.0, 0.0, 2.5e-05)"
1970/01/01/01:00:07.120000,705,7,120000000,base,-0.000695791516991,-0.00601441605974,0.0087614022236,0.999943288644,"(2.6030820491461885e-07, 0.0, 0.0, 0.0, 2.6030820491461885e-07, 0.0, 0.0, 0.0, 0.0)",0.00405700189959,0.00621791913552,-0.0105725102904,"(2.5e-05, 0.0, 0.0, 0.0, 2.5e-05, 0.0, 0.0, 0.0, 2.5e-05)",0.118858376623,-0.0146823426684,9.80184406687,"(2.5e-05, 0.0, 0.0, 0.0, 2.5e-05, 0.0, 0.0, 0.0, 2.5e-05)"
1970/01/01/01:00:07.130000,706,7,130000000,base,-0.000695833834983,-0.00601449394791,0.00876133362644,0.999943288747,"(2.6030820491461885e-07, 0.0, 0.0, 0.0, 2.6030820491461885e-07, 0.0, 0.0, 0.0, 0.0)",0.00593036356856,-0.00404045071348,-0.00783944208249,"(2.5e-05, 0.0, 0.0, 0.0, 2.5e-05, 0.0, 0.0, 0.0, 2.5e-05)",0.12435604166,-0.0182660668097,9.79569745436,"(2.5e-05, 0.0, 0.0, 0.0, 2.5e-05, 0.0, 0.0, 0.0, 2.5e-05)"
1970/01/01/01:00:07.143000,707,7,140000000,base,-0.000695872250335,-0.00601460042168,0.0087612649459,0.999943288682,"(2.6030820491461885e-07, 0.0, 0.0, 0.0, 2.6030820491461885e-07, 0.0, 0.0, 0.0, 0.0)",-0.010175074531,-0.00560418320776,-0.016468704747,"(2.5e-05, 0.0, 0.0, 0.0, 2.5e-05, 0.0, 0.0, 0.0, 2.5e-05)",0.105150180285,-0.0193901656875,9.79228373225,"(2.5e-05, 0.0, 0.0, 0.0, 2.5e-05, 0.0, 0.0, 0.0, 2.5e-05)"
1970/01/01/01:00:07.150000,708,7,150000000,base,-0.000695821101196,-0.00601460809948,0.00876119582307,0.999943289277,"(2.6030820491461885e-07, 0.0, 0.0, 0.0, 2.6030820491461885e-07, 0.0, 0.0, 0.0, 0.0)",-0.000331001768322,-0.00554874882036,-0.00958456496035,"(2.5e-05, 0.0, 0.0, 0.0, 2.5e-05, 0.0, 0.0, 0.0, 2.5e-05)",0.118627632078,-0.0198666331502,9.79860606627,"(2.5e-05, 0.0, 0.0, 0.0, 2.5e-05, 0.0, 0.0, 0.0, 2.5e-05)"
1970/01/01/01:00:07.160000,709,7,160000000,base,-0.000695803713865,-0.00601466880308,0.00876112680496,0.999943289529,"(2.6030820491461885e-07, 0.0, 0.0, 0.0, 2.6030820491461885e-07, 0.0, 0.0, 0.0, 0.0)",0.00144776593792,-0.00610457756111,-0.0116594486141,"(2.5e-05, 0.0, 0.0, 0.0, 2.5e-05, 0.0, 0.0, 0.0, 2.5e-05)",0.109188023413,-0.0221421108594,9.79858645217,"(2.5e-05, 0.0, 0.0, 0.0, 2.5e-05, 0.0, 0.0, 0.0, 2.5e-05)"
1970/01/01/01:00:07.170000,710,7,170000000,base,-0.000695724828,-0.00601478027957,0.00876105736394,0.999943289521,"(2.6030820491461885e-07, 0.0, 0.0, 0.0, 2.6030820491461885e-07, 0.0, 0.0, 0.0, 0.0)",0.00491280615912,-0.0137994929007,-0.0116773760363,"(2.5e-05, 0.0, 0.0, 0.0, 2.5e-05, 0.0, 0.0, 0.0, 2.5e-05)",0.117829742013,-0.00593339389098,9.79948198426,"(2.5e-05, 0.0, 0.0, 0.0, 2.5e-05, 0.0, 0.0, 0.0, 2.5e-05)"
1970/01/01/01:00:07.180000,711,7,180000000,base,-0.00069567403312,-0.00601487026221,0.0087609880657,0.999943289623,"(2.6030820491461885e-07, 0.0, 0.0, 0.0, 2.6030820491461885e-07, 0.0, 0.0, 0.0, 0.0)",-0.000189692321613,-0.0118032064541,-0.00871564553276,"(2.5e-05, 0.0, 0.0, 0.0, 2.5e-05, 0.0, 0.0, 0.0, 2.5e-05)",0.116035961521,-0.0229307645431,9.79757167256,"(2.5e-05, 0.0, 0.0, 0.0, 2.5e-05, 0.0, 0.0, 0.0, 2.5e-05)"
1970/01/01/01:00:07.190000,712,7,190000000,base,-0.000695719165014,-0.00601492107433,0.00876091930456,0.999943289888,"(2.6030820491461885e-07, 0.0, 0.0, 0.0, 2.6030820491461885e-07, 0.0, 0.0, 0.0, 0.0)",-0.00544741689275,0.00242725257042,-0.00720978271658,"(2.5e-05, 0.0, 0.0, 0.0, 2.5e-05, 0.0, 0.0, 0.0, 2.5e-05)",0.112026608803,-0.0066474470537,9.79295439068,"(2.5e-05, 0.0, 0.0, 0.0, 2.5e-05, 0.0, 0.0, 0.0, 2.5e-05)"
1970/01/01/01:00:07.200000,713,7,200000000,base,-0.000695677280722,-0.00601497004757,0.00876085002836,0.99994329023,"(2.6030820491461885e-07, 0.0, 0.0, 0.0, 2.6030820491461885e-07, 0.0, 0.0, 0.0, 0.0)",0.00883053441087,-0.000251864967473,-0.0022567312919,"(2.5e-05, 0.0, 0.0, 0.0, 2.5e-05, 0.0, 0.0, 0.0, 2.5e-05)",0.116310318385,-0.0121030712711,9.79958875821,"(2.5e-05, 0.0, 0.0, 0.0, 2.5e-05, 0.0, 0.0, 0.0, 2.5e-05)"
1970/01/01/01:00:07.218000,714,7,210000000,base,-0.000695645999547,-0.00601515062423,0.00876078065794,0.999943289773,"(2.6030820491461885e-07, 0.0, 0.0, 0.0, 2.6030820491461885e-07, 0.0, 0.0, 0.0, 0.0)",0.00712602558015,-0.00357215859985,-0.0148594442549,"(2.5e-05, 0.0, 0.0, 0.0, 2.5e-05, 0.0, 0.0, 0.0, 2.5e-05)",0.109211427065,-0.0110123894859,9.79793681869,"(2.5e-05, 0.0, 0.0, 0.0, 2.5e-05, 0.0, 0.0, 0.0, 2.5e-05)"
1970/01/01/01:00:07.221000,715,7,220000000,base,-0.000695722512974,-0.00601515814133,0.0087607120154,0.999943290276,"(2.6030820491461885e-07, 0.0, 0.0, 0.0, 2.6030820491461885e-07, 0.0, 0.0, 0.0, 0.0)",-0.000752802859248,0.000592699293078,-0.0107577610608,"(2.5e-05, 0.0, 0.0, 0.0, 2.5e-05, 0.0, 0.0, 0.0, 2.5e-05)",0.109989155249,-0.0155199315587,9.80204453184,"(2.5e-05, 0.0, 0.0, 0.0, 2.5e-05, 0.0, 0.0, 0.0, 2.5e-05)"
1970/01/01/01:00:07.230000,716,7,230000000,base,-0.000695723036591,-0.00601508224629,0.00876064299563,0.999943291337,"(2.6030820491461885e-07, 0.0, 0.0, 0.0, 2.6030820491461885e-07, 0.0, 0.0, 0.0, 0.0)",-0.0044291311316,-0.00646052414264,-0.0175042472532,"(2.5e-05, 0.0, 0.0, 0.0, 2.5e-05, 0.0, 0.0, 0.0, 2.5e-05)",0.114341028639,-0.0138733856099,9.79735040338,"(2.5e-05, 0.0, 0.0, 0.0, 2.5e-05, 0.0, 0.0, 0.0, 2.5e-05)"
1970/01/01/01:00:07.240000,717,7,240000000,base,-0.000695720025553,-0.00601506149781,0.00876057387471,0.999943292069,"(2.6030820491461885e-07, 0.0, 0.0, 0.0, 2.6030820491461885e-07, 0.0, 0.0, 0.0, 0.0)",-0.00408268285469,-0.00514730416645,-0.00937099074797,"(2.5e-05, 0.0, 0.0, 0.0, 2.5e-05, 0.0, 0.0, 0.0, 2.5e-05)",0.115846585004,-0.0156641852746,9.80025022905,"(2.5e-05, 0.0, 0.0, 0.0, 2.5e-05, 0.0, 0.0, 0.0, 2.5e-05)"
1970/01/01/01:00:07.250000,718,7,250000000,base,-0.000695640700705,-0.00601511778087,0.00876050422777,0.999943292396,"(2.6030820491461885e-07, 0.0, 0.0, 0.0, 2.6030820491461885e-07, 0.0, 0.0, 0.0, 0.0)",-0.000920787401718,0.00392424845499,-0.0175863428703,"(2.5e-05, 0.0, 0.0, 0.0, 2.5e-05, 0.0, 0.0, 0.0, 2.5e-05)",0.122719240588,-0.00825927067105,9.79710567226,"(2.5e-05, 0.0, 0.0, 0.0, 2.5e-05, 0.0, 0.0, 0.0, 2.5e-05)"
1970/01/01/01:00:07.260000,719,7,260000000,base,-0.000695568096763,-0.00601516696578,0.0087604345949,0.999943292761,"(2.6030820491461885e-07, 0.0, 0.0, 0.0, 2.6030820491461885e-07, 0.0, 0.0, 0.0, 0.0)",-0.00163657096473,-0.0132094848975,-0.00972464338609,"(2.5e-05, 0.0, 0.0, 0.0, 2.5e-05, 0.0, 0.0, 0.0, 2.5e-05)",0.117224988608,-0.0205846774762,9.79453627505,"(2.5e-05, 0.0, 0.0, 0.0, 2.5e-05, 0.0, 0.0, 0.0, 2.5e-05)"
1970/01/01/01:00:07.270000,720,7,270000000,base,-0.000695545516572,-0.00601511262506,0.00876036530639,0.99994329371,"(2.6030820491461885e-07, 0.0, 0.0, 0.0, 2.6030820491461885e-07, 0.0, 0.0, 0.0, 0.0)",0.00441728850175,-0.00757274355735,-0.012933558338,"(2.5e-05, 0.0, 0.0, 0.0, 2.5e-05, 0.0, 0.0, 0.0, 2.5e-05)",0.108679476399,-0.0143603015122,9.80650556592,"(2.5e-05, 0.0, 0.0, 0.0, 2.5e-05, 0.0, 0.0, 0.0, 2.5e-05)"
1970/01/01/01:00:07.286000,721,7,280000000,base,-0.000695544516938,-0.00601516095226,0.00876029601435,0.999943294027,"(2.6030820491461885e-07, 0.0, 0.0, 0.0, 2.6030820491461885e-07, 0.0, 0.0, 0.0, 0.0)",0.00209100014044,0.00197134982929,0.00128478581884,"(2.5e-05, 0.0, 0.0, 0.0, 2.5e-05, 0.0, 0.0, 0.0, 2.5e-05)",0.116335002805,-0.0133907602776,9.79412998256,"(2.5e-05, 0.0, 0.0, 0.0, 2.5e-05, 0.0, 0.0, 0.0, 2.5e-05)"
1970/01/01/01:00:07.291000,722,7,290000000,base,-0.000695576590685,-0.00601529112913,0.00876022680233,0.999943293828,"(2.6030820491461885e-07, 0.0, 0.0, 0.0, 2.6030820491461885e-07, 0.0, 0.0, 0.0, 0.0)",-0.0108428205321,-0.00452026974222,-0.0123368713944,"(2.5e-05, 0.0, 0.0, 0.0, 2.5e-05, 0.0, 0.0, 0.0, 2.5e-05)",0.120955368378,-0.0230075500856,9.79257827928,"(2.5e-05, 0.0, 0.0, 0.0, 2.5e-05, 0.0, 0.0, 0.0, 2.5e-05)"
1970/01/01/01:00:07.300000,723,7,300000000,base,-0.000695486342107,-0.00601540573712,0.00876015689543,0.999943293814,"(2.6030820491461885e-07, 0.0, 0.0, 0.0, 2.6030820491461885e-07, 0.0, 0.0, 0.0, 0.0)",-0.00233875444833,0.00539189515165,-0.0115409618577,"(2.5e-05, 0.0, 0.0, 0.0, 2.5e-05, 0.0, 0.0, 0.0, 2.5e-05)",0.116834891734,-0.0105212277384,9.79743332195,"(2.5e-05, 0.0, 0.0, 0.0, 2.5e-05, 0.0, 0.0, 0.0, 2.5e-05)"
1970/01/01/01:00:07.310000,724,7,310000000,base,-0.000695392068544,-0.006015526491,0.00876008693252,0.999943293766,"(2.6030820491461885e-07, 0.0, 0.0, 0.0, 2.6030820491461885e-07, 0.0, 0.0, 0.0, 0.0)",-0.00353444504404,0.00530011097589,-0.0192551179621,"(2.5e-05, 0.0, 0.0, 0.0, 2.5e-05, 0.0, 0.0, 0.0, 2.5e-05)",0.120139047009,-0.0199207210938,9.79595622372,"(2.5e-05, 0.0, 0.0, 0.0, 2.5e-05, 0.0, 0.0, 0.0, 2.5e-05)"
1970/01/01/01:00:07.320000,725,7,320000000,base,-0.000695364639679,-0.00601558199253,0.00876001737423,0.999943294061,"(2.6030820491461885e-07, 0.0, 0.0, 0.0, 2.6030820491461885e-07, 0.0, 0.0, 0.0, 0.0)",-0.00656929793342,-0.00751524827343,-0.0177594958095,"(2.5e-05, 0.0, 0.0, 0.0, 2.5e-05, 0.0, 0.0, 0.0, 2.5e-05)",0.124004883646,-0.0118708661827,9.80350255312,"(2.5e-05, 0.0, 0.0, 0.0, 2.5e-05, 0.0, 0.0, 0.0, 2.5e-05)"
1970/01/01/01:00:07.330000,726,7,330000000,base,-0.000695498811894,-0.00601560694669,0.00875994871646,0.999943294419,"(2.6030820491461885e-07, 0.0, 0.0, 0.0, 2.6030820491461885e-07, 0.0, 0.0, 0.0, 0.0)",-0.000398389120449,-0.00143336970512,-0.00616358507222,"(2.5e-05, 0.0, 0.0, 0.0, 2.5e-05, 0.0, 0.0, 0.0, 2.5e-05)",0.126001922856,-0.00293732242562,9.79235363738,"(2.5e-05, 0.0, 0.0, 0.0, 2.5e-05, 0.0, 0.0, 0.0, 2.5e-05)"
1970/01/01/01:00:07.340000,727,7,340000000,base,-0.00069547944242,-0.006015603615,0.00875987920315,0.999943295061,"(2.6030820491461885e-07, 0.0, 0.0, 0.0, 2.6030820491461885e-07, 0.0, 0.0, 0.0, 0.0)",0.003188095558,-0.00739479383624,-0.00679240856134,"(2.5e-05, 0.0, 0.0, 0.0, 2.5e-05, 0.0, 0.0, 0.0, 2.5e-05)",0.11976275386,-0.00314315173086,9.79987515908,"(2.5e-05, 0.0, 0.0, 0.0, 2.5e-05, 0.0, 0.0, 0.0, 2.5e-05)"
1970/01/01/01:00:07.350000,728,7,350000000,base,-0.000695564543996,-0.00601560514545,0.00875981024041,0.999943295597,"(2.6030820491461885e-07, 0.0, 0.0, 0.0, 2.6030820491461885e-07, 0.0, 0.0, 0.0, 0.0)",-0.00780797537921,-0.0014666077868,-0.0121098347155,"(2.5e-05, 0.0, 0.0, 0.0, 2.5e-05, 0.0, 0.0, 0.0, 2.5e-05)",0.112076478937,-0.0135325585582,9.80752621633,"(2.5e-05, 0.0, 0.0, 0.0, 2.5e-05, 0.0, 0.0, 0.0, 2.5e-05)"
1970/01/01/01:00:07.360000,729,7,360000000,base,-0.000695553611382,-0.00601575027484,0.00875974058458,0.999943295342,"(2.6030820491461885e-07, 0.0, 0.0, 0.0, 2.6030820491461885e-07, 0.0, 0.0, 0.0, 0.0)",0.00399815306808,-0.00503620138149,-0.00647779525637,"(2.5e-05, 0.0, 0.0, 0.0, 2.5e-05, 0.0, 0.0, 0.0, 2.5e-05)",0.118505782461,-0.0121409631428,9.80813995609,"(2.5e-05, 0.0, 0.0, 0.0, 2.5e-05, 0.0, 0.0, 0.0, 2.5e-05)"
1970/01/01/01:00:07.370000,730,7,370000000,base,-0.000695471533643,-0.00601578901385,0.00875967060483,0.999943295779,"(2.6030820491461885e-07, 0.0, 0.0, 0.0, 2.6030820491461885e-07, 0.0, 0.0, 0.0, 0.0)",4.08332990671e-05,-0.00605454854134,-0.00702849478757,"(2.5e-05, 0.0, 0.0, 0.0, 2.5e-05, 0.0, 0.0, 0.0, 2.5e-05)",0.125585337107,-0.0100873765986,9.80024227254,"(2.5e-05, 0.0, 0.0, 0.0, 2.5e-05, 0.0, 0.0, 0.0, 2.5e-05)"
1970/01/01/01:00:07.380000,731,7,380000000,base,-0.000695424789193,-0.00601576821638,0.00875960085109,0.999943296547,"(2.6030820491461885e-07, 0.0, 0.0, 0.0, 2.6030820491461885e-07, 0.0, 0.0, 0.0, 0.0)",-0.00195447113127,-0.00789334001966,-0.0129305434038,"(2.5e-05, 0.0, 0.0, 0.0, 2.5e-05, 0.0, 0.0, 0.0, 2.5e-05)",0.122508413684,-0.0140374397404,9.81168039953,"(2.5e-05, 0.0, 0.0, 0.0, 2.5e-05, 0.0, 0.0, 0.0, 2.5e-05)"
1970/01/01/01:00:07.389000,732,7,390000000,base,-0.000695545651194,-0.00601579619558,0.00875953196025,0.999943296898,"(2.6030820491461885e-07, 0.0, 0.0, 0.0, 2.6030820491461885e-07, 0.0, 0.0, 0.0, 0.0)",-0.00348420886971,-0.00365582292916,-0.00899167643765,"(2.5e-05, 0.0, 0.0, 0.0, 2.5e-05, 0.0, 0.0, 0.0, 2.5e-05)",0.125345840489,-0.0132170272815,9.79566695136,"(2.5e-05, 0.0, 0.0, 0.0, 2.5e-05, 0.0, 0.0, 0.0, 2.5e-05)"
1970/01/01/01:00:07.400000,733,7,400000000,base,-0.000695618688731,-0.00601589880893,0.00875946270952,0.999943296837,"(2.6030820491461885e-07, 0.0, 0.0, 0.0, 2.6030820491461885e-07, 0.0, 0.0, 0.0, 0.0)",-0.00151493917135,-0.0033018900459,-0.0122875042988,"(2.5e-05, 0.0, 0.0, 0.0, 2.5e-05, 0.0, 0.0, 0.0, 2.5e-05)",0.126207903818,-0.0235072032274,9.79310625365,"(2.5e-05, 0.0, 0.0, 0.0, 2.5e-05, 0.0, 0.0, 0.0, 2.5e-05)"
1970/01/01/01:00:07.410000,734,7,410000000,base,-0.000695676772637,-0.00601586833686,0.00875939347354,0.999943297586,"(2.6030820491461885e-07, 0.0, 0.0, 0.0, 2.6030820491461885e-07, 0.0, 0.0, 0.0, 0.0)",-0.00512517694849,-0.00146734992706,-0.012621121064,"(2.5e-05, 0.0, 0.0, 0.0, 2.5e-05, 0.0, 0.0, 0.0, 2.5e-05)",0.112823091167,-0.0134562023633,9.80386395646,"(2.5e-05, 0.0, 0.0, 0.0, 2.5e-05, 0.0, 0.0, 0.0, 2.5e-05)"
1970/01/01/01:00:07.420000,735,7,420000000,base,-0.000695667696563,-0.00601603942051,0.00875932365367,0.999943297175,"(2.6030820491461885e-07, 0.0, 0.0, 0.0, 2.6030820491461885e-07, 0.0, 0.0, 0.0, 0.0)",-0.00611761312817,0.00476792482324,-0.0155675717958,"(2.5e-05, 0.0, 0.0, 0.0, 2.5e-05, 0.0, 0.0, 0.0, 2.5e-05)",0.107012214444,-0.00907071353053,9.79484203368,"(2.5e-05, 0.0, 0.0, 0.0, 2.5e-05, 0.0, 0.0, 0.0, 2.5e-05)"
1970/01/01/01:00:07.430000,736,7,430000000,base,-0.000695660092925,-0.00601605496293,0.00875925396127,0.999943297697,"(2.6030820491461885e-07, 0.0, 0.0, 0.0, 2.6030820491461885e-07, 0.0, 0.0, 0.0, 0.0)",0.00645975948243,-0.00956967218429,-0.0175492502288,"(2.5e-05, 0.0, 0.0, 0.0, 2.5e-05, 0.0, 0.0, 0.0, 2.5e-05)",0.125500003624,-0.00768746145055,9.80208667843,"(2.5e-05, 0.0, 0.0, 0.0, 2.5e-05, 0.0, 0.0, 0.0, 2.5e-05)"
1970/01/01/01:00:07.440000,737,7,440000000,base,-0.000695623967981,-0.00601623336478,0.00875918393631,0.999943297262,"(2.6030820491461885e-07, 0.0, 0.0, 0.0, 2.6030820491461885e-07, 0.0, 0.0, 0.0, 0.0)",0.00270510715685,-0.00120888558262,-0.00990094204646,"(2.5e-05, 0.0, 0.0, 0.0, 2.5e-05, 0.0, 0.0, 0.0, 2.5e-05)",0.125020741071,-0.010920420392,9.80050089466,"(2.5e-05, 0.0, 0.0, 0.0, 2.5e-05, 0.0, 0.0, 0.0, 2.5e-05)"
1970/01/01/01:00:07.450000,738,7,450000000,base,-0.000695715456366,-0.00601637033381,0.00875911463656,0.999943296982,"(2.6030820491461885e-07, 0.0, 0.0, 0.0, 2.6030820491461885e-07, 0.0, 0.0, 0.0, 0.0)",0.00352657522992,-0.00597287115117,-0.0186612376726,"(2.5e-05, 0.0, 0.0, 0.0, 2.5e-05, 0.0, 0.0, 0.0, 2.5e-05)",0.111344830626,-0.0208332676016,9.80480301772,"(2.5e-05, 0.0, 0.0, 0.0, 2.5e-05, 0.0, 0.0, 0.0, 2.5e-05)"
1970/01/01/01:00:07.460000,739,7,460000000,base,-0.000695791376677,-0.00601642960268,0.00875904529854,0.99994329718,"(2.6030820491461885e-07, 0.0, 0.0, 0.0, 2.6030820491461885e-07, 0.0, 0.0, 0.0, 0.0)",0.00619596954896,-0.00414541761294,-0.00756716167157,"(2.5e-05, 0.0, 0.0, 0.0, 2.5e-05, 0.0, 0.0, 0.0, 2.5e-05)",0.108670332923,-0.0284911987215,9.79059236176,"(2.5e-05, 0.0, 0.0, 0.0, 2.5e-05, 0.0, 0.0, 0.0, 2.5e-05)"
1970/01/01/01:00:07.470000,740,7,470000000,base,-0.000695681124324,-0.00601648753926,0.00875897490233,0.999943297524,"(2.6030820491461885e-07, 0.0, 0.0, 0.0, 2.6030820491461885e-07, 0.0, 0.0, 0.0, 0.0)",0.00534734996741,-0.00405474399195,0.00470020788467,"(2.5e-05, 0.0, 0.0, 0.0, 2.5e-05, 0.0, 0.0, 0.0, 2.5e-05)",0.114418297778,-0.015916811674,9.79846854645,"(2.5e-05, 0.0, 0.0, 0.0, 2.5e-05, 0.0, 0.0, 0.0, 2.5e-05)"
1970/01/01/01:00:07.480000,741,7,480000000,base,-0.000695683737347,-0.00601655157489,0.00875890510624,0.999943297749,"(2.6030820491461885e-07, 0.0, 0.0, 0.0, 2.6030820491461885e-07, 0.0, 0.0, 0.0, 0.0)",-0.00474103544008,-0.00324496277591,-0.00705058110282,"(2.5e-05, 0.0, 0.0, 0.0, 2.5e-05, 0.0, 0.0, 0.0, 2.5e-05)",0.119034271389,-0.0187051028108,9.79062138547,"(2.5e-05, 0.0, 0.0, 0.0, 2.5e-05, 0.0, 0.0, 0.0, 2.5e-05)"
1970/01/01/01:00:07.490000,742,7,490000000,base,-0.000695727633341,-0.00601662823398,0.008758835506,0.999943297867,"(2.6030820491461885e-07, 0.0, 0.0, 0.0, 2.6030820491461885e-07, 0.0, 0.0, 0.0, 0.0)",0.00304103070711,-0.00573035033582,-0.00987060714527,"(2.5e-05, 0.0, 0.0, 0.0, 2.5e-05, 0.0, 0.0, 0.0, 2.5e-05)",0.111647170572,-0.0219237749053,9.79810988586,"(2.5e-05, 0.0, 0.0, 0.0, 2.5e-05, 0.0, 0.0, 0.0, 2.5e-05)"
1970/01/01/01:00:07.500000,743,7,500000000,base,-0.000695759186732,-0.00601677231123,0.00875876575281,0.999943297589,"(2.6030820491461885e-07, 0.0, 0.0, 0.0, 2.6030820491461885e-07, 0.0, 0.0, 0.0, 0.0)",0.00119008287445,-0.00228651668159,-0.0125960812239,"(2.5e-05, 0.0, 0.0, 0.0, 2.5e-05, 0.0, 0.0, 0.0, 2.5e-05)",0.122222625444,-0.0180222772072,9.79120381025,"(2.5e-05, 0.0, 0.0, 0.0, 2.5e-05, 0.0, 0.0, 0.0, 2.5e-05)"
1970/01/01/01:00:07.510000,744,7,510000000,base,-0.000695751712798,-0.00601681686412,0.00875869585215,0.999943297938,"(2.6030820491461885e-07, 0.0, 0.0, 0.0, 2.6030820491461885e-07, 0.0, 0.0, 0.0, 0.0)",0.00161902869476,0.00668051652794,-0.0111624860678,"(2.5e-05, 0.0, 0.0, 0.0, 2.5e-05, 0.0, 0.0, 0.0, 2.5e-05)",0.120595446829,-0.0201874369777,9.79962925888,"(2.5e-05, 0.0, 0.0, 0.0, 2.5e-05, 0.0, 0.0, 0.0, 2.5e-05)"
1970/01/01/01:00:07.520000,745,7,520000000,base,-0.000695804865186,-0.00601687423537,0.00875862625562,0.999943298166,"(2.6030820491461885e-07, 0.0, 0.0, 0.0, 2.6030820491461885e-07, 0.0, 0.0, 0.0, 0.0)",-0.00393564137722,-0.00228205601305,-0.00261653617659,"(2.5e-05, 0.0, 0.0, 0.0, 2.5e-05, 0.0, 0.0, 0.0, 2.5e-05)",0.119299287493,-0.0134768965694,9.79285803112,"(2.5e-05, 0.0, 0.0, 0.0, 2.5e-05, 0.0, 0.0, 0.0, 2.5e-05)"
1970/01/01/01:00:07.530000,746,7,530000000,base,-0.000695834638142,-0.00601696599805,0.00875855647586,0.999943298204,"(2.6030820491461885e-07, 0.0, 0.0, 0.0, 2.6030820491461885e-07, 0.0, 0.0, 0.0, 0.0)",0.00505512239188,-0.0119714385258,-0.0152525927252,"(2.5e-05, 0.0, 0.0, 0.0, 2.5e-05, 0.0, 0.0, 0.0, 2.5e-05)",0.113273440872,-0.0082625103612,9.80054844846,"(2.5e-05, 0.0, 0.0, 0.0, 2.5e-05, 0.0, 0.0, 0.0, 2.5e-05)"
1970/01/01/01:00:07.540000,747,7,540000000,base,-0.000695750025354,-0.00601705212961,0.00875848604323,0.999943298361,"(2.6030820491461885e-07, 0.0, 0.0, 0.0, 2.6030820491461885e-07, 0.0, 0.0, 0.0, 0.0)",-0.00285066947935,-0.0125604112967,-0.0109796786166,"(2.5e-05, 0.0, 0.0, 0.0, 2.5e-05, 0.0, 0.0, 0.0, 2.5e-05)",0.124902124963,-0.0205265885603,9.80293314751,"(2.5e-05, 0.0, 0.0, 0.0, 2.5e-05, 0.0, 0.0, 0.0, 2.5e-05)"
1970/01/01/01:00:07.550000,748,7,550000000,base,-0.000695699742549,-0.00601718451558,0.00875841573823,0.999943298216,"(2.6030820491461885e-07, 0.0, 0.0, 0.0, 2.6030820491461885e-07, 0.0, 0.0, 0.0, 0.0)",-0.00247061219333,0.00863073339203,-0.00670562062188,"(2.5e-05, 0.0, 0.0, 0.0, 2.5e-05, 0.0, 0.0, 0.0, 2.5e-05)",0.118644839446,-0.0150158713297,9.80083797908,"(2.5e-05, 0.0, 0.0, 0.0, 2.5e-05, 0.0, 0.0, 0.0, 2.5e-05)"
1970/01/01/01:00:07.560000,749,7,560000000,base,-0.000695618018574,-0.00601721396103,0.00875834533229,0.999943298712,"(2.6030820491461885e-07, 0.0, 0.0, 0.0, 2.6030820491461885e-07, 0.0, 0.0, 0.0, 0.0)",0.00259492745833,-0.00962172993236,-0.0168825839295,"(2.5e-05, 0.0, 0.0, 0.0, 2.5e-05, 0.0, 0.0, 0.0, 2.5e-05)",0.110818271832,-0.0217251281558,9.79632719863,"(2.5e-05, 0.0, 0.0, 0.0, 2.5e-05, 0.0, 0.0, 0.0, 2.5e-05)"
1970/01/01/01:00:07.570000,750,7,570000000,base,-0.000695586743593,-0.00601731346497,0.00875827512226,0.99994329875,"(2.6030820491461885e-07, 0.0, 0.0, 0.0, 2.6030820491461885e-07, 0.0, 0.0, 0.0, 0.0)",-0.00150458650972,-0.00651691827865,-0.0175201701766,"(2.5e-05, 0.0, 0.0, 0.0, 2.5e-05, 0.0, 0.0, 0.0, 2.5e-05)",0.112353582504,-0.0135456567173,9.79149879336,"(2.5e-05, 0.0, 0.0, 0.0, 2.5e-05, 0.0, 0.0, 0.0, 2.5e-05)"
1970/01/01/01:00:07.580000,751,7,580000000,base,-0.00069561165479,-0.00601738109661,0.0087582052342,0.999943298938,"(2.6030820491461885e-07, 0.0, 0.0, 0.0, 2.6030820491461885e-07, 0.0, 0.0, 0.0, 0.0)",-0.00227544021814,-0.00150299049315,-0.0145666405869,"(2.5e-05, 0.0, 0.0, 0.0, 2.5e-05, 0.0, 0.0, 0.0, 2.5e-05)",0.101606593388,-0.00484657200009,9.79405530057,"(2.5e-05, 0.0, 0.0, 0.0, 2.5e-05, 0.0, 0.0, 0.0, 2.5e-05)"
1970/01/01/01:00:07.590000,752,7,590000000,base,-0.000695704878084,-0.00601756467926,0.00875813559969,0.999943298378,"(2.6030820491461885e-07, 0.0, 0.0, 0.0, 2.6030820491461885e-07, 0.0, 0.0, 0.0, 0.0)",0.0011421269988,-0.0102695560686,-0.0066295561533,"(2.5e-05, 0.0, 0.0, 0.0, 2.5e-05, 0.0, 0.0, 0.0, 2.5e-05)",0.123153019669,-0.0128805102003,9.80168567551,"(2.5e-05, 0.0, 0.0, 0.0, 2.5e-05, 0.0, 0.0, 0.0, 2.5e-05)"
1970/01/01/01:00:07.600000,753,7,600000000,base,-0.000695736769454,-0.00601752613827,0.00875806580848,0.999943299199,"(2.6030820491461885e-07, 0.0, 0.0, 0.0, 2.6030820491461885e-07, 0.0, 0.0, 0.0, 0.0)",-0.00760068965048,0.00325587447971,-0.0128655854862,"(2.5e-05, 0.0, 0.0, 0.0, 2.5e-05, 0.0, 0.0, 0.0, 2.5e-05)",0.113169421501,-0.0138920899516,9.8040218222,"(2.5e-05, 0.0, 0.0, 0.0, 2.5e-05, 0.0, 0.0, 0.0, 2.5e-05)"
1970/01/01/01:00:07.610000,754,7,610000000,base,-0.00069576475887,-0.00601762645112,0.00875799584802,0.999943299189,"(2.6030820491461885e-07, 0.0, 0.0, 0.0, 2.6030820491461885e-07, 0.0, 0.0, 0.0, 0.0)",0.00767143764135,-0.0110283243432,-0.0123772422917,"(2.5e-05, 0.0, 0.0, 0.0, 2.5e-05, 0.0, 0.0, 0.0, 2.5e-05)",0.113788786713,-0.0033132350621,9.79968059206,"(2.5e-05, 0.0, 0.0, 0.0, 2.5e-05, 0.0, 0.0, 0.0, 2.5e-05)"
1970/01/01/01:00:07.620000,755,7,620000000,base,-0.000695788803552,-0.00601766975111,0.00875792589871,0.999943299524,"(2.6030820491461885e-07, 0.0, 0.0, 0.0, 2.6030820491461885e-07, 0.0, 0.0, 0.0, 0.0)",-0.00502427201396,-0.00181927939032,-0.0165303988148,"(2.5e-05, 0.0, 0.0, 0.0, 2.5e-05, 0.0, 0.0, 0.0, 2.5e-05)",0.116450129,-0.0160501378584,9.80434880219,"(2.5e-05, 0.0, 0.0, 0.0, 2.5e-05, 0.0, 0.0, 0.0, 2.5e-05)"
1970/01/01/01:00:07.630000,756,7,630000000,base,-0.000695812315406,-0.00601770167444,0.00875785593771,0.999943299928,"(2.6030820491461885e-07, 0.0, 0.0, 0.0, 2.6030820491461885e-07, 0.0, 0.0, 0.0, 0.0)",0.00890170112461,-0.00637627629971,-0.00538146028302,"(2.5e-05, 0.0, 0.0, 0.0, 2.5e-05, 0.0, 0.0, 0.0, 2.5e-05)",0.110245914056,-0.0125617778489,9.7978452583,"(2.5e-05, 0.0, 0.0, 0.0, 2.5e-05, 0.0, 0.0, 0.0, 2.5e-05)"
1970/01/01/01:00:07.640000,757,7,640000000,base,-0.000682620100533,-0.00759739209149,0.00841774647815,0.999935475522,"(2.6030820491461885e-07, 0.0, 0.0, 0.0, 2.6030820491461885e-07, 0.0, 0.0, 0.0, 0.0)",0.000782722063029,-0.321031467465,-0.0837976978444,"(2.5e-05, 0.0, 0.0, 0.0, 2.5e-05, 0.0, 0.0, 0.0, 2.5e-05)",0.807849599679,0.537839217656,0.297599005768,"(2.5e-05, 0.0, 0.0, 0.0, 2.5e-05, 0.0, 0.0, 0.0, 2.5e-05)"
1970/01/01/01:00:07.650000,758,7,650000000,base,-0.00160758205429,-0.00743118819101,0.00799598728639,0.999939126802,"(2.6030820491461885e-07, 0.0, 0.0, 0.0, 2.6030820491461885e-07, 0.0, 0.0, 0.0, 0.0)",-0.176087080769,0.0276066234366,-0.0871629773291,"(2.5e-05, 0.0, 0.0, 0.0, 2.5e-05, 0.0, 0.0, 0.0, 2.5e-05)",-0.443270506102,0.509021423113,11.8200654247,"(2.5e-05, 0.0, 0.0, 0.0, 2.5e-05, 0.0, 0.0, 0.0, 2.5e-05)"
1970/01/01/01:00:07.660000,759,7,660000000,base,-0.00218495792737,-0.00736045620471,0.00770427365834,0.999940845156,"(2.6030820491461885e-07, 0.0, 0.0, 0.0, 2.6030820491461885e-07, 0.0, 0.0, 0.0, 0.0)",-0.123970944231,0.0145581285148,-0.0621151152585,"(2.5e-05, 0.0, 0.0, 0.0, 2.5e-05, 0.0, 0.0, 0.0, 2.5e-05)",2.29573050978,0.988755237698,8.72543101948,"(2.5e-05, 0.0, 0.0, 0.0, 2.5e-05, 0.0, 0.0, 0.0, 2.5e-05)"
1970/01/01/01:00:07.670000,760,7,670000000,base,-0.00252159531266,-0.00823942511802,0.00757738983633,0.99993416613,"(2.6030820491461885e-07, 0.0, 0.0, 0.0, 2.6030820491461885e-07, 0.0, 0.0, 0.0, 0.0)",-0.0650294289461,-0.176485899317,-0.0486731297383,"(2.5e-05, 0.0, 0.0, 0.0, 2.5e-05, 0.0, 0.0, 0.0, 2.5e-05)",3.25591705113,1.09069734792,8.06143324915,"(2.5e-05, 0.0, 0.0, 0.0, 2.5e-05, 0.0, 0.0, 0.0, 2.5e-05)"
1970/01/01/01:00:07.680000,761,7,680000000,base,-0.00316888839847,-0.00987175844723,0.00768068413062,0.999916753346,"(2.6030820491461885e-07, 0.0, 0.0, 0.0, 2.6030820491461885e-07, 0.0, 0.0, 0.0, 0.0)",-0.139079473993,-0.333392458199,0.00714398652128,"(2.5e-05, 0.0, 0.0, 0.0, 2.5e-05, 0.0, 0.0, 0.0, 2.5e-05)",4.18345305724,1.22772874058,8.23860165842,"(2.5e-05, 0.0, 0.0, 0.0, 2.5e-05, 0.0, 0.0, 0.0, 2.5e-05)"
1970/01/01/01:00:07.690000,762,7,690000000,base,-0.0041420620811,-0.0125409245819,0.00805096723654,0.999880368074,"(2.6030820491461885e-07, 0.0, 0.0, 0.0, 2.6030820491461885e-07, 0.0, 0.0, 0.0, 0.0)",-0.192156072697,-0.539142964618,0.0702221123165,"(2.5e-05, 0.0, 0.0, 0.0, 2.5e-05, 0.0, 0.0, 0.0, 2.5e-05)",4.22448262172,1.65095322439,8.77628202243,"(2.5e-05, 0.0, 0.0, 0.0, 2.5e-05, 0.0, 0.0, 0.0, 2.5e-05)"
1970/01/01/01:00:07.700000,763,7,700000000,base,-0.00578782982472,-0.0156137044038,0.0085204736357,0.99982504209,"(2.6030820491461885e-07, 0.0, 0.0, 0.0, 2.6030820491461885e-07, 0.0, 0.0, 0.0, 0.0)",-0.333581560987,-0.611931701648,0.0861268358471,"(2.5e-05, 0.0, 0.0, 0.0, 2.5e-05, 0.0, 0.0, 0.0, 2.5e-05)",3.55118555236,2.0604993422,10.1653973336,"(2.5e-05, 0.0, 0.0, 0.0, 2.5e-05, 0.0, 0.0, 0.0, 2.5e-05)"
1970/01/01/01:00:07.710000,764,7,710000000,base,-0.0080762405803,-0.0187139540882,0.00901455110759,0.999751619218,"(2.6030820491461885e-07, 0.0, 0.0, 0.0, 2.6030820491461885e-07, 0.0, 0.0, 0.0, 0.0)",-0.466619735649,-0.62067185024,0.0882416002083,"(2.5e-05, 0.0, 0.0, 0.0, 2.5e-05, 0.0, 0.0, 0.0, 2.5e-05)",3.31749458456,2.28531926294,11.1687226491,"(2.5e-05, 0.0, 0.0, 0.0, 2.5e-05, 0.0, 0.0, 0.0, 2.5e-05)"
1970/01/01/01:00:07.720000,765,7,720000000,base,-0.0108897903487,-0.0217086675486,0.00958222110561,0.999659105525,"(2.6030820491461885e-07, 0.0, 0.0, 0.0, 2.6030820491461885e-07, 0.0, 0.0, 0.0, 0.0)",-0.564623178509,-0.599040968615,0.108152102012,"(2.5e-05, 0.0, 0.0, 0.0, 2.5e-05, 0.0, 0.0, 0.0, 2.5e-05)",3.24164709023,2.29497464658,11.8181103395,"(2.5e-05, 0.0, 0.0, 0.0, 2.5e-05, 0.0, 0.0, 0.0, 2.5e-05)"
1970/01/01/01:00:07.730000,766,7,730000000,base,-0.0141861293438,-0.0245369150653,0.0102808907909,0.999545395076,"(2.6030820491461885e-07, 0.0, 0.0, 0.0, 2.6030820491461885e-07, 0.0, 0.0, 0.0, 0.0)",-0.659392116603,-0.561371085412,0.133606734758,"(2.5e-05, 0.0, 0.0, 0.0, 2.5e-05, 0.0, 0.0, 0.0, 2.5e-05)",3.17006399429,2.12230572703,12.3326246279,"(2.5e-05, 0.0, 0.0, 0.0, 2.5e-05, 0.0, 0.0, 0.0, 2.5e-05)"
1970/01/01/01:00:07.740000,767,7,740000000,base,-0.0162689956424,-0.0248481394138,0.0123986808512,0.999481947041,"(2.6030820491461885e-07, 0.0, 0.0, 0.0, 2.6030820491461885e-07, 0.0, 0.0, 0.0, 0.0)",-0.402935985281,-0.0713038258536,0.418910753373,"(2.5e-05, 0.0, 0.0, 0.0, 2.5e-05, 0.0, 0.0, 0.0, 2.5e-05)",-0.523167768097,-2.85476520232,21.2675317831,"(2.5e-05, 0.0, 0.0, 0.0, 2.5e-05, 0.0, 0.0, 0.0, 2.5e-05)"
1970/01/01/01:00:07.750000,768,7,750000000,base,-0.0164595912707,-0.0220161335582,0.0169414589131,0.999478543386,"(2.6030820491461885e-07, 0.0, 0.0, 0.0, 2.6030820491461885e-07, 0.0, 0.0, 0.0, 0.0)",-0.000286872016323,0.545531569165,0.906008860463,"(2.5e-05, 0.0, 0.0, 0.0, 2.5e-05, 0.0, 0.0, 0.0, 2.5e-05)",2.89268243104,-5.19156296186,18.5200328813,"(2.5e-05, 0.0, 0.0, 0.0, 2.5e-05, 0.0, 0.0, 0.0, 2.5e-05)"
1970/01/01/01:00:07.760000,769,7,760000000,base,-0.0157418182734,-0.0184013892532,0.022132050003,0.999461733331,"(2.6030820491461885e-07, 0.0, 0.0, 0.0, 2.6030820491461885e-07, 0.0, 0.0, 0.0, 0.0)",0.174627022357,0.697567898669,1.03062803894,"(2.5e-05, 0.0, 0.0, 0.0, 2.5e-05, 0.0, 0.0, 0.0, 2.5e-05)",4.86901829688,-4.45301440769,14.1360701525,"(2.5e-05, 0.0, 0.0, 0.0, 2.5e-05, 0.0, 0.0, 0.0, 2.5e-05)"
1970/01/01/01:00:07.770000,770,7,770000000,base,-0.0145791176091,-0.0160395433293,0.0269148693644,0.999402707714,"(2.6030820491461885e-07, 0.0, 0.0, 0.0, 2.6030820491461885e-07, 0.0, 0.0, 0.0, 0.0)",0.253492153243,0.442988124304,0.949006970558,"(2.5e-05, 0.0, 0.0, 0.0, 2.5e-05, 0.0, 0.0, 0.0, 2.5e-05)",7.06434584853,-2.55529853378,6.81765648012,"(2.5e-05, 0.0, 0.0, 0.0, 2.5e-05, 0.0, 0.0, 0.0, 2.5e-05)"
1970/01/01/01:00:07.779000,771,7,780000000,base,-0.0132010487212,-0.0144021012799,0.031448769357,0.999314408331,"(2.6030820491461885e-07, 0.0, 0.0, 0.0, 2.6030820491461885e-07, 0.0, 0.0, 0.0, 0.0)",0.300342046134,0.297667024637,0.891696353647,"(2.5e-05, 0.0, 0.0, 0.0, 2.5e-05, 0.0, 0.0, 0.0, 2.5e-05)",2.8471963969,-1.71322271913,3.09160821729,"(2.5e-05, 0.0, 0.0, 0.0, 2.5e-05, 0.0, 0.0, 0.0, 2.5e-05)"
1970/01/01/01:00:07.790000,772,7,790000000,base,-0.0118504769247,-0.0128882516699,0.0356382836924,0.999211374986,"(2.6030820491461885e-07, 0.0, 0.0, 0.0, 2.6030820491461885e-07, 0.0, 0.0, 0.0, 0.0)",0.292248614538,0.27353553216,0.826491241381,"(2.5e-05, 0.0, 0.0, 0.0, 2.5e-05, 0.0, 0.0, 0.0, 2.5e-05)",1.36202398585,-2.04763081832,3.55094564153,"(2.5e-05, 0.0, 0.0, 0.0, 2.5e-05, 0.0, 0.0, 0.0, 2.5e-05)"
1970/01/01/01:00:07.800000,773,7,800000000,base,-0.0111568288949,-0.0115646940145,0.0392343032265,0.999100821975,"(2.6030820491461885e-07, 0.0, 0.0, 0.0, 2.6030820491461885e-07, 0.0, 0.0, 0.0, 0.0)",0.162676562131,0.245230752961,0.719114791144,"(2.5e-05, 0.0, 0.0, 0.0, 2.5e-05, 0.0, 0.0, 0.0, 2.5e-05)",0.534585880669,-1.38172343434,5.31732552816,"(2.5e-05, 0.0, 0.0, 0.0, 2.5e-05, 0.0, 0.0, 0.0, 2.5e-05)"
1970/01/01/01:00:07.810000,774,7,810000000,base,-0.0105156659726,-0.0101924163096,0.0423624530804,0.998994973955,"(2.6030820491461885e-07, 0.0, 0.0, 0.0, 2.6030820491461885e-07, 0.0, 0.0, 0.0, 0.0)",0.148186054961,0.263535928779,0.61941179837,"(2.5e-05, 0.0, 0.0, 0.0, 2.5e-05, 0.0, 0.0, 0.0, 2.5e-05)",-0.000752858346405,-0.713983030264,6.75724493128,"(2.5e-05, 0.0, 0.0, 0.0, 2.5e-05, 0.0, 0.0, 0.0, 2.5e-05)"
1970/01/01/01:00:07.820000,775,7,820000000,base,-0.00981634678022,-0.00877074529032,0.0451227509934,0.998894714525,"(2.6030820491461885e-07, 0.0, 0.0, 0.0, 2.6030820491461885e-07, 0.0, 0.0, 0.0, 0.0)",0.151547264917,0.266961427452,0.536890310191,"(2.5e-05, 0.0, 0.0, 0.0, 2.5e-05, 0.0, 0.0, 0.0, 2.5e-05)",-0.267912216118,-0.258839836965,8.01112013734,"(2.5e-05, 0.0, 0.0, 0.0, 2.5e-05, 0.0, 0.0, 0.0, 2.5e-05)"
1970/01/01/01:00:07.830000,776,7,830000000,base,-0.00907102649045,-0.00740773780943,0.0476104402152,0.998797320722,"(2.6030820491461885e-07, 0.0, 0.0, 0.0, 2.6030820491461885e-07, 0.0, 0.0, 0.0, 0.0)",0.163472710101,0.257768555529,0.491611802071,"(2.5e-05, 0.0, 0.0, 0.0, 2.5e-05, 0.0, 0.0, 0.0, 2.5e-05)",-0.466882692912,0.0914154547343,9.00732441115,"(2.5e-05, 0.0, 0.0, 0.0, 2.5e-05, 0.0, 0.0, 0.0, 2.5e-05)"
1970/01/01/01:00:07.840000,777,7,840000000,base,-0.00830909436913,-0.00619539667123,0.0499090949318,0.998699984106,"(2.6030820491461885e-07, 0.0, 0.0, 0.0, 2.6030820491461885e-07, 0.0, 0.0, 0.0, 0.0)",0.170740821511,0.220460609626,0.457121237552,"(2.5e-05, 0.0, 0.0, 0.0, 2.5e-05, 0.0, 0.0, 0.0, 2.5e-05)",-0.620861353534,0.354003694141,9.77231536983,"(2.5e-05, 0.0, 0.0, 0.0, 2.5e-05, 0.0, 0.0, 0.0, 2.5e-05)"
1970/01/01/01:00:07.850000,778,7,850000000,base,-0.00755223720189,-0.00520806557034,0.0520881760625,0.998600351332,"(2.6030820491461885e-07, 0.0, 0.0, 0.0, 2.6030820491461885e-07, 0.0, 0.0, 0.0, 0.0)",0.152846625223,0.185787694695,0.432730331979,"(2.5e-05, 0.0, 0.0, 0.0, 2.5e-05, 0.0, 0.0, 0.0, 2.5e-05)",-0.723108488009,0.52416589327,10.2919685799,"(2.5e-05, 0.0, 0.0, 0.0, 2.5e-05, 0.0, 0.0, 0.0, 2.5e-05)"
1970/01/01/01:00:07.860000,779,7,860000000,base,-0.00680969153595,-0.00449318785703,0.0542019034033,0.99849666651,"(2.6030820491461885e-07, 0.0, 0.0, 0.0, 2.6030820491461885e-07, 0.0, 0.0, 0.0, 0.0)",0.16378989106,0.133003483955,0.428948874656,"(2.5e-05, 0.0, 0.0, 0.0, 2.5e-05, 0.0, 0.0, 0.0, 2.5e-05)",-0.781645766425,0.59929662709,10.6052008172,"(2.5e-05, 0.0, 0.0, 0.0, 2.5e-05, 0.0, 0.0, 0.0, 2.5e-05)"
1970/01/01/01:00:07.870000,780,7,870000000,base,-0.00607949693237,-0.00407005772983,0.0562899370387,0.998387658846,"(2.6030820491461885e-07, 0.0, 0.0, 0.0, 2.6030820491461885e-07, 0.0, 0.0, 0.0, 0.0)",0.154825931763,0.0617122387081,0.405726377571,"(2.5e-05, 0.0, 0.0, 0.0, 2.5e-05, 0.0, 0.0, 0.0, 2.5e-05)",-0.809961278847,0.611029045314,10.7772856712,"(2.5e-05, 0.0, 0.0, 0.0, 2.5e-05, 0.0, 0.0, 0.0, 2.5e-05)"
1970/01/01/01:00:07.880000,781,7,880000000,base,-0.00535272787886,-0.0039312983244,0.0583789713344,0.998272402155,"(2.6030820491461885e-07, 0.0, 0.0, 0.0, 2.6030820491461885e-07, 0.0, 0.0, 0.0, 0.0)",0.150305066144,0.0201565037477,0.402715549427,"(2.5e-05, 0.0, 0.0, 0.0, 2.5e-05, 0.0, 0.0, 0.0, 2.5e-05)",-0.783596520414,0.576763927484,10.8259332387,"(2.5e-05, 0.0, 0.0, 0.0, 2.5e-05, 0.0, 0.0, 0.0, 2.5e-05)"
1970/01/01/01:00:07.890000,782,7,890000000,base,-0.00461841684612,-0.00404832468544,0.0604849496484,0.998150215228,"(2.6030820491461885e-07, 0.0, 0.0, 0.0, 2.6030820491461885e-07, 0.0, 0.0, 0.0, 0.0)",0.137958137301,-0.0400171821767,0.408923848257,"(2.5e-05, 0.0, 0.0, 0.0, 2.5e-05, 0.0, 0.0, 0.0, 2.5e-05)",-0.735519200154,0.504372055865,10.806575177,"(2.5e-05, 0.0, 0.0, 0.0, 2.5e-05, 0.0, 0.0, 0.0, 2.5e-05)"
1970/01/01/01:00:07.900000,783,7,900000000,base,-0.00386169497214,-0.00438370393697,0.0626148704306,0.998020665344,"(2.6030820491461885e-07, 0.0, 0.0, 0.0, 2.6030820491461885e-07, 0.0, 0.0, 0.0, 0.0)",0.154164842208,-0.0784937481917,0.41604628353,"(2.5e-05, 0.0, 0.0, 0.0, 2.5e-05, 0.0, 0.0, 0.0, 2.5e-05)",-0.635856500854,0.409037825964,10.736911999,"(2.5e-05, 0.0, 0.0, 0.0, 2.5e-05, 0.0, 0.0, 0.0, 2.5e-05)"
1970/01/01/01:00:07.910000,784,7,910000000,base,-0.00306865425966,-0.00485113473452,0.0647393959842,0.997885695088,"(2.6030820491461885e-07, 0.0, 0.0, 0.0, 2.6030820491461885e-07, 0.0, 0.0, 0.0, 0.0)",0.151937637951,-0.112718333722,0.422502440589,"(2.5e-05, 0.0, 0.0, 0.0, 2.5e-05, 0.0, 0.0, 0.0, 2.5e-05)",-0.0199753347779,0.414168484337,10.7961394951,"(2.5e-05, 0.0, 0.0, 0.0, 2.5e-05, 0.0, 0.0, 0.0, 2.5e-05)"
1970/01/01/01:00:07.920000,785,7,920000000,base,-0.00205385252398,-0.00595668022494,0.0667294762235,0.997751209798,"(2.6030820491461885e-07, 0.0, 0.0, 0.0, 2.6030820491461885e-07, 0.0, 0.0, 0.0, 0.0)",0.186623421539,-0.240576418994,0.38577805293,"(2.5e-05, 0.0, 0.0, 0.0, 2.5e-05, 0.0, 0.0, 0.0, 2.5e-05)",1.70969892379,0.0653685463836,9.73296060881,"(2.5e-05, 0.0, 0.0, 0.0, 2.5e-05, 0.0, 0.0, 0.0, 2.5e-05)"
1970/01/01/01:00:07.930000,786,7,930000000,base,-0.000751827871854,-0.00766128539656,0.0686558014738,0.997610705829,"(2.6030820491461885e-07, 0.0, 0.0, 0.0, 2.6030820491461885e-07, 0.0, 0.0, 0.0, 0.0)",0.239200665157,-0.362019292339,0.374687864461,"(2.5e-05, 0.0, 0.0, 0.0, 2.5e-05, 0.0, 0.0, 0.0, 2.5e-05)",1.22352132391,-0.303470928048,10.0249566073,"(2.5e-05, 0.0, 0.0, 0.0, 2.5e-05, 0.0, 0.0, 0.0, 2.5e-05)"
1970/01/01/01:00:07.940000,787,7,940000000,base,0.000897307325748,-0.00954201676923,0.0706484682161,0.997455231424,"(2.6030820491461885e-07, 0.0, 0.0, 0.0, 2.6030820491461885e-07, 0.0, 0.0, 0.0, 0.0)",0.312719168603,-0.403893708832,0.390883344881,"(2.5e-05, 0.0, 0.0, 0.0, 2.5e-05, 0.0, 0.0, 0.0, 2.5e-05)",1.06124074692,-0.612426459778,10.2617469664,"(2.5e-05, 0.0, 0.0, 0.0, 2.5e-05, 0.0, 0.0, 0.0, 2.5e-05)"
1970/01/01/01:00:07.950000,788,7,950000000,base,0.00283343660079,-0.0114617296263,0.0727526438412,0.99728012775,"(2.6030820491461885e-07, 0.0, 0.0, 0.0, 2.6030820491461885e-07, 0.0, 0.0, 0.0, 0.0)",0.359879536611,-0.413872975588,0.40419919935,"(2.5e-05, 0.0, 0.0, 0.0, 2.5e-05, 0.0, 0.0, 0.0, 2.5e-05)",1.17948240691,-0.765805095916,10.4123148668,"(2.5e-05, 0.0, 0.0, 0.0, 2.5e-05, 0.0, 0.0, 0.0, 2.5e-05)"
