time,.header.seq,.header.stamp.secs,.header.stamp.nsecs,.header.frame_id,.name,.position,.velocity,.effort
1970/01/01/01:00:07.013000,345,7,13000000,,"['FL_calf_joint', 'FL_hip_joint', 'FL_thigh_joint', 'FR_calf_joint', 'FR_hip_joint', 'FR_thigh_joint', 'RL_calf_joint', 'RL_hip_joint', 'RL_thigh_joint', 'RR_calf_joint', 'RR_hip_joint', 'RR_thigh_joint']","(-2.121003810148493, -0.0006808289751409902, 1.0610672297531485, -2.119157740226326, 0.002535067725734308, 1.0600006349663609, -2.1419859439149747, 0.00045896310728821277, 1.0305751343536826, -2.1391757672157965, -0.0011831779911224416, 1.0341495439416262)","(0.12588734902739954, 0.0011065669914717376, -0.06602258056082777, 0.11442137255508981, -0.0007421498919024283, -0.0598621406242245, 0.14902712364143378, 0.0013522196123739532, -0.07348039982362367, 0.14375719832580486, -0.000789950343929658, -0.07144967922514854)","(4.034232367434402, 0.11594429358300479, -2.1004014573199368, 3.770735690949147, -0.45188799367339666, -1.9453771991872808, 7.6721777218162766, -0.09068340991366299, 3.432922541228994, 7.197965436499997, 0.2176741262427143, 2.7773446493027003)"
1970/01/01/01:00:07.033000,346,7,33000000,,"['FL_calf_joint', 'FL_hip_joint', 'FL_thigh_joint', 'FR_calf_joint', 'FR_hip_joint', 'FR_thigh_joint', 'RL_calf_joint', 'RL_hip_joint', 'RL_thigh_joint', 'RR_calf_joint', 'RR_hip_joint', 'RR_thigh_joint']","(-2.121003854369209, -0.0006773023823898328, 1.0610672213828272, -2.119157778296433, 0.002531548493703184, 1.0600006087463285, -2.1419859939945436, 0.000463475274170122, 1.030575114741124, -2.1391758303043567, -0.0011876945858739774, 1.0341495473688243)","(0.12588720087630048, 0.00110614314399847, -0.06602247997994039, 0.11442120221878344, -0.0007417667195885218, -0.059862055066329536, 0.1490268951604975, 0.0013515331875162558, -0.07348025659928498, 0.14375725554764562, -0.0007893536385954604, -0.07144971073647163)","(4.03424121832812, 0.11531203657023666, -2.1004005527922325, 3.770743564104508, -0.45125682133054235, -1.9453729940125577, 7.672188107523904, -0.09149148661443474, 3.432925214531708, 7.197976449584123, 0.21848354198674647, 2.777344219009225)"
1970/01/01/01:00:07.053000,347,7,53000000,,"['FL_calf_joint', 'FL_hip_joint', 'FL_thigh_joint', 'FR_calf_joint', 'FR_hip_joint', 'FR_thigh_joint', 'RL_calf_joint', 'RL_hip_joint', 'RL_thigh_joint', 'RR_calf_joint', 'RR_hip_joint', 'RR_thigh_joint']","(-2.121003898307447, -0.0006737772904550354, 1.0610672131543124, -2.1191578165666733, 0.002528030327576758, 1.0600005824171035, -2.1419860440485223, 0.00046798679772486196, 1.0305750954178379, -2.139175893311542, -0.001192210210491318, 1.0341495504991052)","(0.12588705169294534, 0.0011057197269879007, -0.06602237918098332, 0.11442103303033963, -0.0007413834009682126, -0.05986196980200151, 0.14902666759123637, 0.0013508482023558486, -0.07348011419484062, 0.14375731189267602, -0.0007887559697144419, -0.07144974145787589)","(4.034250024520733, 0.11468004716707296, -2.100399675123676, 3.7707514664440525, -0.4506258416792261, -1.9453687673962317, 7.672198483162413, -0.09229945643249936, 3.432927840625661, 7.1979874532726, 0.2192927775140759, 2.7773438374791244)"
1970/01/01/01:00:07.073000,348,7,73000000,,"['FL_calf_joint', 'FL_hip_joint', 'FL_thigh_joint', 'FR_calf_joint', 'FR_hip_joint', 'FR_thigh_joint', 'RL_calf_joint', 'RL_hip_joint', 'RL_thigh_joint', 'RR_calf_joint', 'RR_hip_joint', 'RR_thigh_joint']","(-2.121003941969728, -0.0006702536941221027, 1.061067205065096, -2.1191578550305845, 0.00252451323301095, 1.0600005559812278, -2.1419860940751505, 0.00047249764921364346, 1.030575076376719, -2.1391759562390433, -0.001196724842935204, 1.0341495533395504)","(0.12588690151351106, 0.0011052967301223905, -0.06602227817033506, 0.114420864953848, -0.0007409999461858442, -0.059861884825426315, 0.14902644090642758, 0.0013501646088330726, -0.07347997258279913, 0.14375736738734057, -0.000788157384499016, -0.07144977141695663)","(4.034258786970222, 0.114048324494358, -2.1003988238227254, 3.770759397020178, -0.44999505567900766, -1.9453645198333174, 7.672208848579683, -0.09310731389685004, 3.4329304206317737, 7.197998447713759, 0.2201018291320056, 2.7773435035992535)"
1970/01/01/01:00:07.093000,349,7,93000000,,"['FL_calf_joint', 'FL_hip_joint', 'FL_thigh_joint', 'FR_calf_joint', 'FR_hip_joint', 'FR_thigh_joint', 'RL_calf_joint', 'RL_hip_joint', 'RL_thigh_joint', 'RR_calf_joint', 'RR_hip_joint', 'RR_thigh_joint']","(-2.1210039853622904, -0.0006667315884181235, 1.061067197112771, -2.119157893681974, 0.0025209972154502935, 1.0600005294411368, -2.1419861440727512, 0.00047700780103099305, 1.030575057610946, -2.139176019088495, -0.0012012384620456729, 1.034149555896951)","(0.12588675037256786, 0.0011048741440463404, -0.0660221769542957, 0.11442069795462728, -0.0007406163647300939, -0.059861800130582975, 0.14902621507999486, 0.0013494823616196417, -0.07347983173703924, 0.1437574220566535, -0.0007875579275025656, -0.07144980063962211)","(4.034267506595265, 0.11341686771147402, -2.100397998417391, 3.7707673549219702, -0.4493644642540333, -1.9453602517978252, 7.672219203628978, -0.09391505375507006, 3.432932955620191, 7.198009433050247, 0.22091069329377788, 2.7773432163023193)"
1970/01/01/01:00:07.113000,350,7,113000000,,"['FL_calf_joint', 'FL_hip_joint', 'FL_thigh_joint', 'FR_calf_joint', 'FR_hip_joint', 'FR_thigh_joint', 'RL_calf_joint', 'RL_hip_joint', 'RL_thigh_joint', 'RR_calf_joint', 'RR_hip_joint', 'RR_thigh_joint']","(-2.1210040284911296, -0.0006632109685966725, 1.0610671892950192, -2.1191579325149004, 0.0025174822801439234, 1.0600005027991592, -2.1419861940397205, 0.00048151722665057406, 1.0305750391139803, -2.139176081861473, -0.0012057510475189659, 1.0341495581778206)","(0.12588659830287105, 0.0011044519593591219, -0.06602207553879402, 0.11442053199959673, -0.0007402326658031115, -0.059861715711809295, 0.14902599008675377, 0.0013488014173795202, -0.07347969163248876, 0.14375747592485116, -0.0007869576413983985, -0.07144982915118081)","(4.0342761842787676, 0.1127856760171539, -2.100397198454826, 3.7707753392790915, -0.4487340682963509, -1.9453559637432867, 7.672229548171779, -0.09472267096258392, 3.4329354466203332, 7.198020409422133, 0.22171936659202787, 2.777342974561982)"
1970/01/01/01:00:07.137000,351,7,133000000,,"['FL_calf_joint', 'FL_hip_joint', 'FL_thigh_joint', 'FR_calf_joint', 'FR_hip_joint', 'FR_thigh_joint', 'RL_calf_joint', 'RL_hip_joint', 'RL_thigh_joint', 'RR_calf_joint', 'RR_hip_joint', 'RR_thigh_joint']","(-2.121004071361983, -0.000659691830129816, 1.0610671816096149, -2.1191579715236717, 0.0025139684321455746, 1.0600004760575334, -2.14198624397452, 0.0004860259005781131, 1.0305750208795406, -2.1391761445594906, -0.0012102625798489086, 1.0341495601884079)","(0.1258864453360446, 0.0011040301677563463, -0.06602197392942297, 0.11442036705692187, -0.0007398488578050023, -0.05986163156360309, 0.14902576590312622, 0.0013481217350243193, -0.0734795522453898, 0.14375752901533972, -0.0007863565665098143, -0.07144985697513445)","(4.034284820866669, 0.11215474864596438, -2.100396423498676, 3.770783349253774, -0.44810386866655033, -1.945351656108421, 7.67223988207251, -0.0955301606743425, 3.432937894621121, 7.1980313769605635, 0.22252784575285198, 2.7773427773975423)"
1970/01/01/01:00:07.153000,352,7,153000000,,"['FL_calf_joint', 'FL_hip_joint', 'FL_thigh_joint', 'FR_calf_joint', 'FR_hip_joint', 'FR_thigh_joint', 'RL_calf_joint', 'RL_hip_joint', 'RL_thigh_joint', 'RR_calf_joint', 'RR_hip_joint', 'RR_thigh_joint']","(-2.12100411398037, -0.0006561741687001188, 1.0610671740544158, -2.119158010702826, 0.0025104556763384522, 1.0600004492184016, -2.141986293875682, 0.0004905337982998859, 1.0305750029016032, -2.139176207184004, -0.0012147730402949364, 1.034149561934714)","(0.12588629150240652, 0.001103608760975209, -0.06602187213167132, 0.11442020309655626, -0.0007394649489146288, -0.05986154768049695, 0.14902554250619782, 0.0013474432753588343, -0.07347941355259292, 0.14375758135046152, -0.0007857547414593716, -0.0714498841347401)","(4.034293417171131, 0.11152408486840387, -2.1003956731306817, 3.7707913840434286, -0.44747386619521, -1.945347329311027, 7.672250205204666, -0.09633751823227647, 3.4329403005719428, 7.198042335793222, 0.2233361276274507, 2.777342623862315)"
1970/01/01/01:00:07.173000,353,7,173000000,,"['FL_calf_joint', 'FL_hip_joint', 'FL_thigh_joint', 'FR_calf_joint', 'FR_hip_joint', 'FR_thigh_joint', 'RL_calf_joint', 'RL_hip_joint', 'RL_thigh_joint', 'RR_calf_joint', 'RR_hip_joint', 'RR_thigh_joint']","(-2.1210041563515754, -0.0006526579801882093, 1.0610671666273648, -2.1191580500471208, 0.002506944017435231, 1.0600004222838262, -2.141986343741797, 0.0004950408962356434, 1.030574985174379, -2.1391762697364154, -0.0012192824108465672, 1.0341495634224973)","(0.1258861368307732, 0.0011031877313255024, -0.0660217701506915, 0.1144200400893101, -0.0007390809468273107, -0.059861464057290086, 0.14902531987415063, 0.0013467660010343591, -0.07347927553245245, 0.14375763295182978, -0.0007851522029597092, -0.07144991065163873)","(4.034301973974522, 0.11089368398690377, -2.100394946948814, 3.7707994428772205, -0.44684406168587315, -1.9453429837537337, 7.672260517445418, -0.09714473916086926, 3.432942665384081, 7.198053286046383, 0.2241442091888417, 2.7773425130495757)"
1970/01/01/01:00:07.193000,354,7,193000000,,"['FL_calf_joint', 'FL_hip_joint', 'FL_thigh_joint', 'FR_calf_joint', 'FR_hip_joint', 'FR_thigh_joint', 'RL_calf_joint', 'RL_hip_joint', 'RL_thigh_joint', 'RR_calf_joint', 'RR_hip_joint', 'RR_thigh_joint']","(-2.1210041984806844, -0.0006491432606692271, 1.061067159326483, -2.1191580895515223, 0.0025034334599798314, 1.0600003952557842, -2.1419863935715107, 0.0004995471717030853, 1.0305749676923188, -2.139176332218076, -0.0012237906741843219, 1.034149564657291)","(0.12588598134864215, 0.0011027670715322861, -0.06602166799141206, 0.11441987800738929, -0.00073869685883839, -0.059861380688822755, 0.1490250979859612, 0.0013460898764990552, -0.07347913816358025, 0.14375768384000887, -0.0007845489859247753, -0.07144993654657374)","(4.034310492024625, 0.11026354533734165, -2.1003942445653005, 3.770807525015129, -0.44621445591554426, -1.9453386198253522, 7.672270818676096, -0.09795181915466919, 3.4329449899340174, 7.1980642278349976, 0.224952087523723, 2.777342444086861)"
1970/01/01/01:00:07.218000,355,7,213000000,,"['FL_calf_joint', 'FL_hip_joint', 'FL_thigh_joint', 'FR_calf_joint', 'FR_hip_joint', 'FR_thigh_joint', 'RL_calf_joint', 'RL_hip_joint', 'RL_thigh_joint', 'RR_calf_joint', 'RR_hip_joint', 'RR_thigh_joint']","(-2.1210042403725753, -0.0006456300064012765, 1.0610671521498736, -2.1191581292112076, 0.0024999240083758423, 1.0600003681361763, -2.1419864433635265, 0.0005040526028707859, 1.0305749504500774, -2.1391763946302778, -0.001228297813654855, 1.0341495656444097)","(0.1258858250826233, 0.0011023467746940833, -0.06602156565860096, 0.11441971682415447, -0.0007383126918078222, -0.05986129757020168, 0.14902487682162335, 0.001345414867882728, -0.07347900142616785, 0.14375773403520098, -0.0007839451237644862, -0.07144996183976768)","(4.034318972044819, 0.1096336682866624, -2.1003935656107307, 3.7708156297466306, -0.4455850496350968, -1.945334237898669, 7.672281108784593, -0.0987587540726258, 3.4329472750611028, 7.198075161274589, 0.22575975982784424, 2.777342416134944)"
1970/01/01/01:00:07.233000,356,7,233000000,,"['FL_calf_joint', 'FL_hip_joint', 'FL_thigh_joint', 'FR_calf_joint', 'FR_hip_joint', 'FR_thigh_joint', 'RL_calf_joint', 'RL_hip_joint', 'RL_thigh_joint', 'RR_calf_joint', 'RR_hip_joint', 'RR_thigh_joint']","(-2.1210042820319392, -0.0006421182138236503, 1.0610671450957048, -2.1191581690215333, 0.002496415666872309, 1.0600003409268357, -2.1419864931165957, 0.0005085571687235557, 1.0305749334425336, -2.1391764569742655, -0.0012328038132283226, 1.0341495663889617)","(0.12588566805794066, 0.001101926834222529, -0.06602146315678896, 0.11441955651403216, -0.0007379284522762607, -0.059861214696698924, 0.14902465636166035, 0.001344740942889331, -0.07347886530073937, 0.14375778355654054, -0.0007833406482020205, -0.07144998655033136)","(4.034327414726584, 0.10900405223104918, -2.1003929097263985, 3.770823756387636, -0.4449558435721438, -1.9453298383307898, 7.672291387660838, -0.0995655399310452, 3.4329495215770867, 7.198086086473934, 0.2265672234037433, 2.7773424283888435)"
1970/01/01/01:00:07.253000,357,7,253000000,,"['FL_calf_joint', 'FL_hip_joint', 'FL_thigh_joint', 'FR_calf_joint', 'FR_hip_joint', 'FR_thigh_joint', 'RL_calf_joint', 'RL_hip_joint', 'RL_thigh_joint', 'RR_calf_joint', 'RR_hip_joint', 'RR_thigh_joint']","(-2.1210043234632776, -0.0006386078795435068, 1.0610671381622252, -2.1191582089780496, 0.0024929084395886036, 1.060000313629521, -2.141986542829523, 0.0005130608490251376, 1.0305749166647562, -2.1391765192512366, -0.0012373086574823944, 1.0341495668958567)","(0.1258855102991052, 0.0011015072439218008, -0.0660213604904421, 0.11441939705272047, -0.0007375441464864961, -0.05986113206364359, 0.14902443658782455, 0.0013440680705979825, -0.07347872976892066, 0.14375783242251372, -0.0007827355896520372, -0.07145001069659425)","(4.034335820737245, 0.10837469659583382, -2.1003922765707497, 3.770831904282961, -0.44432683843158594, -1.9453254214690205, 7.672301655200883, -0.1003721728942369, 3.432951730257984, 7.198097003537365, 0.22737447565107347, 2.777342480074022)"
1970/01/01/01:00:07.273000,358,7,273000000,,"['FL_calf_joint', 'FL_hip_joint', 'FL_thigh_joint', 'FR_calf_joint', 'FR_hip_joint', 'FR_thigh_joint', 'RL_calf_joint', 'RL_hip_joint', 'RL_thigh_joint', 'RR_calf_joint', 'RR_hip_joint', 'RR_thigh_joint']","(-2.1210043646709265, -0.0006350990003340939, 1.0610671313477473, -2.1191582490764773, 0.0024894023305126467, 1.0600002862459217, -2.141986592501155, 0.0005175636242826798, 1.0305749001120112, -2.139176581462337, -0.0012418123315631746, 1.0341495671698127)","(0.12588535182934246, 0.001101087997921521, -0.06602125766380325, 0.11441923841662754, -0.0007371597802726805, -0.05986104966658503, 0.14902421748190814, 0.0013433962216855503, -0.07347859481284603, 0.14375788065051148, -0.0007821299769407318, -0.07145003429598529)","(4.03434419071728, 0.10774560083433582, -2.100391665812851, 3.770840072801356, -0.443698034897454, -1.9453209876432882, 7.672311911304566, -0.10117864927116194, 3.43295390185056, 7.198107912566682, 0.22818151406551312, 2.777342570443039)"
1970/01/01/01:00:07.294000,359,7,293000000,,"['FL_calf_joint', 'FL_hip_joint', 'FL_thigh_joint', 'FR_calf_joint', 'FR_hip_joint', 'FR_thigh_joint', 'RL_calf_joint', 'RL_hip_joint', 'RL_thigh_joint', 'RR_calf_joint', 'RR_hip_joint', 'RR_thigh_joint']","(-2.1210044056590514, -0.0006315915731294197, 1.0610671246506511, -2.1191582893127023, 0.002485897343506238, 1.06000025877767, -2.141986642130391, 0.0005220654757192023, 1.0305748837797477, -2.139176643608671, -0.0012463148211692143, 1.03414956721537)","(0.12588519267111192, 0.0011006690906424322, -0.06602115468106608, 0.11441908058319131, -0.0007367753591450211, -0.05986096750134107, 0.14902399902682267, 0.0013427253679538058, -0.07347846041555833, 0.14375792825780487, -0.0007815238378754128, -0.07145005736574211)","(4.0343525252840085, 0.10711676442630197, -2.1003910771359084, 3.770848261336824, -0.4430694336327163, -1.9453165371721182, 7.6723221558764285, -0.10198496550535438, 3.4329560370746464, 7.198118813658094, 0.2289883362331305, 2.7773426987809056)"
1970/01/01/01:00:07.313000,360,7,313000000,,"['FL_calf_joint', 'FL_hip_joint', 'FL_thigh_joint', 'FR_calf_joint', 'FR_hip_joint', 'FR_thigh_joint', 'RL_calf_joint', 'RL_hip_joint', 'RL_thigh_joint', 'RR_calf_joint', 'RR_hip_joint', 'RR_thigh_joint']","(-2.121004446431656, -0.0006280855950127062, 1.0610671180693716, -2.119158329682774, 0.002482393482317491, 1.060000231226331, -2.1419866917161663, 0.0005265663852371816, 1.030574867663585, -2.1391767056913, -0.0012508161125159845, 1.0341495670368905)","(0.12588503284586178, 0.0011002505169549538, -0.06602105154617488, 0.11441892353096757, -0.0007363908883707947, -0.05986088556388378, 0.14902378120622523, 0.0013420554826552831, -0.07347832656101005, 0.14375797526049772, -0.0007809171987072949, -0.07145007992177398)","(4.034360825030833, 0.10648818687764955, -2.1003905102343428, 3.7708564693063487, -0.44244103528103285, -1.9453120703656266, 7.6723323888231425, -0.10279111817240952, 3.4329581366208606, 7.19812970690392, 0.22979493982925747, 2.777342864397109)"
1970/01/01/01:00:07.333000,361,7,333000000,,"['FL_calf_joint', 'FL_hip_joint', 'FL_thigh_joint', 'FR_calf_joint', 'FR_hip_joint', 'FR_thigh_joint', 'RL_calf_joint', 'RL_hip_joint', 'RL_thigh_joint', 'RR_calf_joint', 'RR_hip_joint', 'RR_thigh_joint']","(-2.1210044869925975, -0.000624581063219054, 1.0610671116024095, -2.1191583701828964, 0.002478890750584384, 1.0600002035934146, -2.1419867412574636, 0.0005310663353910172, 1.0305748517593152, -2.13917676771125, -0.0012553161923234413, 1.0341495666385763)","(0.12588487237431079, 0.0010998322717574048, -0.06602094826304934, 0.11441876723904013, -0.0007360063729301453, -0.05986080385026776, 0.14902356400404543, 0.0013413865400695095, -0.07347819323302966, 0.14375802167439164, -0.0007803100847697665, -0.07145010197970099)","(4.034369090526766, 0.10585986771785016, -2.100389964813009, 3.7708646961503987, -0.4418128404683569, -1.9453075875177546, 7.672342610058208, -0.10359710397252044, 3.4329602011561824, 7.198140592397808, 0.23060132260930033, 2.7773430666272105)"
1970/01/01/01:00:07.353000,362,7,353000000,,"['FL_calf_joint', 'FL_hip_joint', 'FL_thigh_joint', 'FR_calf_joint', 'FR_hip_joint', 'FR_thigh_joint', 'RL_calf_joint', 'RL_hip_joint', 'RL_thigh_joint', 'RR_calf_joint', 'RR_hip_joint', 'RR_thigh_joint']","(-2.121004527345579, -0.0006210779751256723, 1.061067105248319, -2.1191584108094155, 0.0024753891518400906, 1.0600001758803703, -2.1419867907533057, 0.000535565309363939, 1.030574836062888, -2.1391768296695, -0.001259815047789381, 1.0341495660244613)","(0.1258847112763319, 0.0010994143504554491, -0.06602084483553458, 0.11441861168769027, -0.0007356218174529334, -0.05986072235653205, 0.14902334740496762, 0.0013407185156839513, -0.07347806041687846, 0.14375806751432635, -0.0007797025201606704, -0.0714501235544914)","(4.034377322322805, 0.10523180650310465, -2.1003894405898578, 3.7708729413293685, -0.44118484980407546, -1.9453030889120653, 7.672352819496055, -0.10440291972540801, 3.432962231319333, 7.198151470223662, 0.2314074824100968, 2.7773433048343925)"
1970/01/01/01:00:07.373000,363,7,373000000,,"['FL_calf_joint', 'FL_hip_joint', 'FL_thigh_joint', 'FR_calf_joint', 'FR_hip_joint', 'FR_thigh_joint', 'RL_calf_joint', 'RL_hip_joint', 'RL_thigh_joint', 'RR_calf_joint', 'RR_hip_joint', 'RR_thigh_joint']","(-2.1210045674941655, -0.000617576328248326, 1.0610670990057036, -2.119158451558823, 0.002471888689518309, 1.0600001480885926, -2.141986840202753, 0.0005400632909342562, 1.0305748205704077, -2.139176891567004, -0.0012643126665574655, 1.0341495651984358)","(0.12588454957088702, 0.0010989967485416235, -0.06602074126699177, 0.11441845685756175, -0.0007352372264232856, -0.0598606410793465, 0.14902313139444753, 0.001340051386144144, -0.07347792809840706, 0.14375811279497913, -0.0007790945280083098, -0.07145014466047765)","(4.034385520946175, 0.10460400281149973, -2.1003889372913447, 3.770881204324813, -0.4405570638799159, -1.9452985748226395, 7.672363017055754, -0.1052085623648577, 3.4329642277267522, 7.198162340467383, 0.23221341714239677, 2.7773435784026184)"
1970/01/01/01:00:07.393000,364,7,393000000,,"['FL_calf_joint', 'FL_hip_joint', 'FL_thigh_joint', 'FR_calf_joint', 'FR_hip_joint', 'FR_thigh_joint', 'RL_calf_joint', 'RL_hip_joint', 'RL_thigh_joint', 'RR_calf_joint', 'RR_hip_joint', 'RR_thigh_joint']","(-2.121004607441786, -0.000614076120236895, 1.061067092873226, -2.119158492427742, 0.0024683893669621426, 1.0600001202194278, -2.1419868896049064, 0.0005445602644575942, 1.0305748052781247, -2.1391769534046734, -0.0012688090367225513, 1.0341495641642373)","(0.12588438727636317, 0.001098579461789656, -0.06602063756106766, 0.11441830273040446, -0.0007348526040401784, -0.059860560014946516, 0.1490229159581077, 0.0013393851289471488, -0.07347779626332177, 0.14375815753002297, -0.0007784861302712584, -0.0714501653113388)","(4.03439368690554, 0.10397645624352955, -2.100388454654705, 3.770889484640697, -0.4399294832736034, -1.9452940455131742, 7.6723732026604115, -0.10601402893504489, 3.4329661909704123, 7.198173203210335, 0.2330191247914218, 2.777343886740959)"
1970/01/01/01:00:07.413000,365,7,413000000,,"['FL_calf_joint', 'FL_hip_joint', 'FL_thigh_joint', 'FR_calf_joint', 'FR_hip_joint', 'FR_thigh_joint', 'RL_calf_joint', 'RL_hip_joint', 'RL_thigh_joint', 'RR_calf_joint', 'RR_hip_joint', 'RR_thigh_joint']","(-2.121004647191742, -0.0006105773488718214, 1.061067086849591, -2.1191585334129304, 0.0024648911874223245, 1.0600000922741621, -2.1419869389588992, 0.0005490562148366962, 1.0305747901824347, -2.139177015183389, -0.0012733041467862805, 1.0341495629254647)","(0.12588422441024008, 0.0010981624864167027, -0.06602053372122076, 0.1144181492884794, -0.0007344679541532356, -0.059860479160184776, 0.14902270108250587, 0.0013387197226018182, -0.07347766489861295, 0.14375820173300935, -0.0007778773481985767, -0.0714501855206041)","(4.034401820690982, 0.10334916642288897, -2.1003879924258677, 3.7708977817961356, -0.43930210854686624, -1.9452895012362919, 7.672383376236745, -0.1068193165842519, 3.4329681216204126, 7.198184058531284, 0.23382460341204067, 2.7773442292789086)"
1970/01/01/01:00:07.433000,366,7,433000000,,"['FL_calf_joint', 'FL_hip_joint', 'FL_thigh_joint', 'FR_calf_joint', 'FR_hip_joint', 'FR_thigh_joint', 'RL_calf_joint', 'RL_hip_joint', 'RL_thigh_joint', 'RR_calf_joint', 'RR_hip_joint', 'RR_thigh_joint']","(-2.1210046867472103, -0.0006070800120605568, 1.0610670809335518, -2.119158574511264, 0.0024613941540696516, 1.060000064254048, -2.1419869882639038, 0.0005535511275063243, 1.0305747752798613, -2.139177076904005, -0.0012777979856553046, 1.0341495614855836)","(0.12588406098959704, 0.001097745818522625, -0.06602042975045362, 0.1144179965147775, -0.0007340832806232264, -0.05986039851178338, 0.14902248675441282, 0.0013380551466265324, -0.07347753399121638, 0.14375824541653154, -0.0007772682018986761, -0.07145020530060876)","(4.034409922771717, 0.1027221329928149, -2.1003875503609755, 3.770906095331825, -0.4386749402493582, -1.945284942236492, 7.672393537712538, -0.10762442256287405, 3.4329700202286415, 7.198194906505351, 0.23462985112350587, 2.7773446054704154)"
1970/01/01/01:00:07.453000,367,7,453000000,,"['FL_calf_joint', 'FL_hip_joint', 'FL_thigh_joint', 'FR_calf_joint', 'FR_hip_joint', 'FR_thigh_joint', 'RL_calf_joint', 'RL_hip_joint', 'RL_thigh_joint', 'RR_calf_joint', 'RR_hip_joint', 'RR_thigh_joint']","(-2.121004726111246, -0.0006035841078331217, 1.061067075123911, -2.119158615719746, 0.002457898269996761, 1.0600000361602753, -2.141987037519124, 0.0005580449884039496, 1.0305747605670685, -2.139177138567339, -0.0012822905426128628, 1.034149559847923)","(0.12588389703054387, 0.0010973294548171234, -0.06602032565197591, 0.11441784439286187, -0.0007336985868324991, -0.05986031806638832, 0.14902227296124104, 0.0013373913813452935, -0.07347740352932261, 0.14375828859332174, -0.0007766587107862584, -0.07145022466395773)","(4.034417993602843, 0.10209535562019706, -2.1003871282256954, 3.770914424803851, -0.43804797891671754, -1.9452803687476674, 7.672403687020611, -0.10842934421706017, 3.4329718873204986, 7.1982057472066945, 0.23543486611204073, 2.7773450147854137)"
1970/01/01/01:00:07.473000,368,7,473000000,,"['FL_calf_joint', 'FL_hip_joint', 'FL_thigh_joint', 'FR_calf_joint', 'FR_hip_joint', 'FR_thigh_joint', 'RL_calf_joint', 'RL_hip_joint', 'RL_thigh_joint', 'RR_calf_joint', 'RR_hip_joint', 'RR_thigh_joint']","(-2.121004765286785, -0.0006000896343394402, 1.0610670694195035, -2.119158657035488, 0.0024544035382181306, 1.0600000079940006, -2.141987086723791, 0.0005625377839564294, 1.0305747460408377, -2.1391772001741813, -0.0012867818073152293, 1.0341495580156979)","(0.12588373254886934, 0.0010969133917264721, -0.06602022142875222, 0.1144176929072366, -0.0007333138761564015, -0.05986023782129136, 0.14902205969098456, 0.001336728407906508, -0.07347727350032078, 0.14375833127494192, -0.0007760488933443316, -0.0714502436221439)","(4.034426033619796, 0.1014688339901742, -2.100386725792214, 3.770922769786477, -0.4374212250729222, -1.9452757809956922, 7.672413824095852, -0.1092340789859093, 3.4329737234064672, 7.1982165807071965, 0.23623964662242194, 2.7773454567180482)"
1970/01/01/01:00:07.493000,369,7,493000000,,"['FL_calf_joint', 'FL_hip_joint', 'FL_thigh_joint', 'FR_calf_joint', 'FR_hip_joint', 'FR_thigh_joint', 'RL_calf_joint', 'RL_hip_joint', 'RL_thigh_joint', 'RR_calf_joint', 'RR_hip_joint', 'RR_thigh_joint']","(-2.121004804276663, -0.0005965965898457881, 1.0610670638192206, -2.119158698455717, 0.002450909961680736, 1.0599999797563342, -2.1419871358771747, 0.0005670295010560267, 1.0305747316980742, -2.1391772617252993, -0.001291271769761515, 1.034149555991994)","(0.12588356755960964, 0.0010964976264292265, -0.0660201170838646, 0.11441754204258789, -0.00073292915159478, -0.05986015777341926, 0.14902184693197543, 0.0013360662082167042, -0.07347714389349697, 0.14375837347318646, -0.000775438767387235, -0.07145026218671631)","(4.0344340432430075, 0.10084256780817656, -2.100386342842858, 3.77093112987125, -0.43679467923016646, -1.945271179200037, 7.672423948876115, -0.11003862439682086, 3.432975528975648, 7.198227407073906, 0.23704419095955878, 2.777345930777524)"
1970/01/01/01:00:07.513000,370,7,513000000,,"['FL_calf_joint', 'FL_hip_joint', 'FL_thigh_joint', 'FR_calf_joint', 'FR_hip_joint', 'FR_thigh_joint', 'RL_calf_joint', 'RL_hip_joint', 'RL_thigh_joint', 'RR_calf_joint', 'RR_hip_joint', 'RR_thigh_joint']","(-2.1210048430836013, -0.0005931049727339044, 1.061067058321986, -2.1191587399777614, 0.002447417543269381, 1.0599999514483436, -2.141987184978568, 0.0005715201270453107, 1.0305747175357993, -2.139177323221425, -0.001295760420293668, 1.034149553779785)","(0.12588340207699364, 0.0010960821558886622, -0.06602001261956969, 0.11441739178444041, -0.0007325444161808261, -0.05986007791998653, 0.14902163467278606, 0.0013354047650177905, -0.07347701469771677, 0.143758415198887, -0.0007748283499364042, -0.07145028036849292)","(4.034442022875645, 0.10021655679950159, -2.1003859791668527, 3.770939504663009, -0.4361683418903754, -1.945266563568714, 7.6724340613007715, -0.11084297806415713, 3.4329773045007714, 7.198238226373963, 0.23784849748344916, 2.777346436495009)"
1970/01/01/01:00:07.533000,371,7,533000000,,"['FL_calf_joint', 'FL_hip_joint', 'FL_thigh_joint', 'FR_calf_joint', 'FR_hip_joint', 'FR_thigh_joint', 'RL_calf_joint', 'RL_hip_joint', 'RL_thigh_joint', 'RR_calf_joint', 'RR_hip_joint', 'RR_thigh_joint']","(-2.121004881710218, -0.0005896147814947739, 1.0610670529267603, -2.1191587815990616, 0.0024439262857995914, 1.0599999230710573, -2.1419872340272956, 0.0005760096496976175, 1.0305747035511459, -2.1391773846632685, -0.00130024774957338, 1.0341495513819376)","(0.12588323611518498, 0.0010956669774029157, -0.06601990803905579, 0.11441724211875977, -0.0007321596725506356, -0.059859998258372606, 0.149021422902901, 0.0013347440617821756, -0.07347688590221478, 0.14375845646290972, -0.0007742176573207007, -0.07145029817801227)","(4.034449972908375, 0.09959080070782367, -2.100385634561512, 3.7709478937839735, -0.4355422135448329, -1.9452619343030533, 7.672444161312939, -0.1116471376829916, 3.432979050433844, 7.198249038670178, 0.23865256460860396, 2.777346973416258)"
1970/01/01/01:00:07.553000,372,7,553000000,,"['FL_calf_joint', 'FL_hip_joint', 'FL_thigh_joint', 'FR_calf_joint', 'FR_hip_joint', 'FR_thigh_joint', 'RL_calf_joint', 'RL_hip_joint', 'RL_thigh_joint', 'RR_calf_joint', 'RR_hip_joint', 'RR_thigh_joint']","(-2.121004920159037, -0.0005861260147304037, 1.0610670476325472, -2.1191588233171466, 0.002440436192035378, 1.0599998946254665, -2.1419872830227042, 0.0005804980571992857, 1.0305746897413535, -2.139177446051516, -0.0013047337485678767, 1.0341495488012056)","(0.1258830696874158, 0.0010952520884156798, -0.06601980334439184, 0.11441709303226816, -0.0007317749233663948, -0.05985991878601961, 0.1490212116117225, 0.0013340840823746383, -0.07347675749689872, 0.14375849727524276, -0.0007736067051578419, -0.07145031562537063)","(4.034457893713833, 0.09896529929609671, -2.1003853088327538, 3.770956296869902, -0.4349162946762278, -1.945257291598058, 7.672454248858364, -0.11245110102834528, 3.4329807672113626, 7.198259844025652, 0.23945639080095174, 2.777347541105329)"
1970/01/01/01:00:07.573000,373,7,573000000,,"['FL_calf_joint', 'FL_hip_joint', 'FL_thigh_joint', 'FR_calf_joint', 'FR_hip_joint', 'FR_thigh_joint', 'RL_calf_joint', 'RL_hip_joint', 'RL_thigh_joint', 'RR_calf_joint', 'RR_hip_joint', 'RR_thigh_joint']","(-2.121004958432482, -0.0005826386711484943, 1.061067042438384, -2.1191588651296467, 0.0024369472646839085, 1.059999866112527, -2.1419873319641702, 0.0005849853381381109, 1.0305746761037646, -2.139177507386824, -0.0013092184085463643, 1.0341495460402408)","(0.1258829028065935, 0.0010948374865640458, -0.06601969853826581, 0.1144169445116566, -0.0007313901709488844, -0.05985983950041732, 0.14902100078931882, 0.0013334248118257986, -0.07347662947217375, 0.14375853764602542, -0.0007729955084947602, -0.0714503327202955)","(4.034465785652728, 0.09834005234468506, -2.1003850017902432, 3.770964713570844, -0.4342905857578958, -1.9452526356405953, 7.672464323884215, -0.11325486595016268, 3.432982455254004, 7.198270642499291, 0.24025997457572773, 2.777348139141289)"
1970/01/01/01:00:07.593000,374,7,593000000,,"['FL_calf_joint', 'FL_hip_joint', 'FL_thigh_joint', 'FR_calf_joint', 'FR_hip_joint', 'FR_thigh_joint', 'RL_calf_joint', 'RL_hip_joint', 'RL_thigh_joint', 'RR_calf_joint', 'RR_hip_joint', 'RR_thigh_joint']","(-2.12100499653289, -0.000579152749560663, 1.0610670373433413, -2.119158907034283, 0.0024334595063990605, 1.0599998375331587, -2.1419873808510967, 0.0005894714814846935, 1.030574662635825, -2.139177568669833, -0.0013137017210569368, 1.0341495431015995)","(0.12588273548515505, 0.0010944231696806488, -0.0660195936227913, 0.11441679654485487, -0.0007310054174800374, -0.05985976039917575, 0.14902079042608257, 0.001332766235245203, -0.07347650181833738, 0.14375857758457228, -0.0007723840816962059, -0.07145034947222204)","(4.034473649072445, 0.09771505965259113, -2.100384713255, 3.7709731435515, -0.43366508725444125, -1.9452479666100668, 7.672474386340335, -0.11405843037157368, 3.4329841149673044, 7.198281434149596, 0.24106331449691853, 2.777348767121275)"
1970/01/01/01:00:07.613000,375,7,613000000,,"['FL_calf_joint', 'FL_hip_joint', 'FL_thigh_joint', 'FR_calf_joint', 'FR_hip_joint', 'FR_thigh_joint', 'RL_calf_joint', 'RL_hip_joint', 'RL_thigh_joint', 'RR_calf_joint', 'RR_hip_joint', 'RR_thigh_joint']","(-2.121005034462507, -0.0005756682488842202, 1.0610670323465277, -2.119158949028865, 0.0024299729197920783, 1.059999808888243, -2.1419874296829065, 0.0005939564765782279, 1.0305746493350778, -2.1391776299011553, -0.0013181836779212475, 1.0341495399877383)","(0.125882567734871, 0.0010940091357098313, -0.06601948860023672, 0.1144166491195715, -0.0007306206651043698, -0.05985968148023669, 0.14902058051268172, 0.0013321083387670008, -0.07347637452628136, 0.14375861710003293, -0.0007717724385894748, -0.07145036589000725)","(4.034481484305508, 0.09709032103549144, -2.100384443051671, 3.7709815864879728, -0.4330397996236099, -1.9452432846802954, 7.672484436178378, -0.11486179228583915, 3.432985746736954, 7.198292219031648, 0.24186640917169558, 2.777349424655895)"
1970/01/01/01:00:07.633000,376,7,633000000,,"['FL_calf_joint', 'FL_hip_joint', 'FL_thigh_joint', 'FR_calf_joint', 'FR_hip_joint', 'FR_thigh_joint', 'RL_calf_joint', 'RL_hip_joint', 'RL_thigh_joint', 'RR_calf_joint', 'RR_hip_joint', 'RR_thigh_joint']","(-2.120783264014541, -0.0005594897012111133, 1.0621247302024743, -2.142251190195404, 0.006363227262129456, 1.0735732930495754, -2.1652185553800383, -0.002845140469090346, 1.0449355285035145, -2.1404852602233095, -0.0020400548732775192, 1.0358035848699707)","(0.2574534696603633, 0.04861136656676268, 0.5775626571565018, -14.994495905332823, 2.2877901837396224, 8.8894413727974, -14.72353414572729, -1.883043052008262, 9.301738539646902, -0.7030016243754695, -0.40042464926116994, 0.9992607809511592)","(3.426338906092785, 0.3534953483579252, -4.609328426126414, -29.224485139609882, -16.30189739339555, 33.5, -23.92021287702084, 13.053542176274396, 33.5, 9.885933889626294, 2.9200820380922083, -0.7766903494047597)"
1970/01/01/01:00:07.653000,377,7,653000000,,"['FL_calf_joint', 'FL_hip_joint', 'FL_thigh_joint', 'FR_calf_joint', 'FR_hip_joint', 'FR_thigh_joint', 'RL_calf_joint', 'RL_hip_joint', 'RL_thigh_joint', 'RR_calf_joint', 'RR_hip_joint', 'RR_thigh_joint']","(-2.129466495767949, 0.0020842274363213065, 1.0696618011768049, -2.287128416638655, 0.00042151951138258426, 1.1475345141600917, -2.2995014641085643, 0.00021069668749440496, 1.131235391292396, -2.1511187675639523, -0.0014544752154312945, 1.0477195419009195)","(-0.42277537869679566, 0.09271479973718041, 0.20728066263423472, -2.5544276260396024, 0.009718841689262014, -2.1155685462179212, -2.0482723896084654, 0.06727477847546369, -0.9158825818694523, -0.13593086700872425, 0.07936117393331685, 0.8207907498250224)","(7.484789948655951, -3.4608642259307647, 4.1430514860319, 7.589118866648553, 1.7063197310617564, -11.85242573277775, 7.5424108332731725, -1.0380232621860626, -10.334262139753905, 10.92572403670059, 1.610054198878701, 7.1911028419057725)"
1970/01/01/01:00:07.673000,378,7,673000000,,"['FL_calf_joint', 'FL_hip_joint', 'FL_thigh_joint', 'FR_calf_joint', 'FR_hip_joint', 'FR_thigh_joint', 'RL_calf_joint', 'RL_hip_joint', 'RL_thigh_joint', 'RR_calf_joint', 'RR_hip_joint', 'RR_thigh_joint']","(-2.139094202174994, 0.001953579302560904, 1.0812943694771473, -2.32647547635053, 0.019779520394666683, 1.0678408502610646, -2.3325454200729565, -0.011144592259492825, 1.081651819624474, -2.162941836854449, -0.002454101738025294, 1.0715319270924617)","(-0.29923765453659984, -0.06205082470373492, 0.8638746982842713, -0.07640315968156308, 1.3073748036493404, -6.093201812427351, -0.005350106455342285, -0.7985494437652692, -4.3368284898197, -0.480233334164066, -0.05393371606363226, 1.3447254615810058)","(8.587186331824881, -4.07113170025347, 5.307308850173254, -2.0368465714578625, 1.318554287702939, -1.1901608825892875, -1.9357367386142434, -1.624173265867043, -1.0095731560253416, 14.857089371449483, 2.9610813791813557, 8.592582821625248)"
1970/01/01/01:00:07.693000,379,7,693000000,,"['FL_calf_joint', 'FL_hip_joint', 'FL_thigh_joint', 'FR_calf_joint', 'FR_hip_joint', 'FR_thigh_joint', 'RL_calf_joint', 'RL_hip_joint', 'RL_thigh_joint', 'RR_calf_joint', 'RR_hip_joint', 'RR_thigh_joint']","(-2.1465943374723873, -0.00026223277221948393, 1.104607485887045, -2.312778710043511, 0.04650672330792194, 0.9401802592343449, -2.319707164784975, -0.02732270523301139, 0.9874653752674938, -2.1831988661095085, -0.002901404347347203, 1.1044448983641884)","(-0.1760699198987017, -0.10898228948704652, 1.3323633506038752, 1.3958668320953578, 1.2654481279622298, -6.248897679160828, 1.2329815549128957, -0.8007176974043062, -4.7320613713206185, -0.6487162506418607, 0.02639198949405258, 1.739761513277709)","(9.108290772106987, -4.647410875113033, 3.65500129776268, -0.8030994251092465, -0.8059037172558337, 1.3324793581559504, -0.6388065951970354, 0.16488699946360974, 0.8168773465824941, 20.246699783634615, 3.659362188354824, 6.820796879611718)"
1970/01/01/01:00:07.713000,380,7,713000000,,"['FL_calf_joint', 'FL_hip_joint', 'FL_thigh_joint', 'FR_calf_joint', 'FR_hip_joint', 'FR_thigh_joint', 'RL_calf_joint', 'RL_hip_joint', 'RL_thigh_joint', 'RR_calf_joint', 'RR_hip_joint', 'RR_thigh_joint']","(-2.1542240276063547, -0.0022596092468729623, 1.1366269931751942, -2.269730176446698, 0.06724739144210545, 0.8282728394033176, -2.2807670164079052, -0.04112895342791667, 0.9003219587514124, -2.202647375086441, -0.0018087363647687482, 1.146338580694696)","(-0.12240506533124274, -0.11057753659660619, 1.584212921949165, 2.8646190035388868, 0.7954701824954241, -4.636401502776942, 2.6490800433111525, -0.544942962772651, -3.709084941466067, -0.23608535454439972, 0.060154037779052316, 1.8476505580967375)","(10.301202641084599, -5.803576194894151, 1.57384542306901, -0.12979941885787127, -1.4286890994695156, 2.5912055115518147, -0.24677565230137155, 0.9635568416880775, 1.9642795680805998, 22.36408004758549, 4.1941746395041735, 5.063509335558695)"
1970/01/01/01:00:07.733000,381,7,733000000,,"['FL_calf_joint', 'FL_hip_joint', 'FL_thigh_joint', 'FR_calf_joint', 'FR_hip_joint', 'FR_thigh_joint', 'RL_calf_joint', 'RL_hip_joint', 'RL_thigh_joint', 'RR_calf_joint', 'RR_hip_joint', 'RR_thigh_joint']","(-2.1615352174927276, -0.0058859780532083406, 1.172000175253964, -2.2013196458001376, 0.07481495745866074, 0.7621451605298644, -2.229785237897717, -0.04724105690183755, 0.8485949116068525, -2.2126823832337355, -0.0006353184977170301, 1.1881722388299343)","(-0.10635784429926887, -0.4546332122575579, 1.3264225747341707, 3.742109219792316, -0.28764826685468603, -1.9486598191541757, 0.30536058156334966, -0.04074561887145878, -0.8770688505051205, 0.5002065519050523, 0.06064672666120119, 1.3945040016404582)","(11.640522718693841, -5.165355798768056, 0.9245788342411925, 0.9410567909500696, -0.26816084323444334, 3.70078145075998, 24.057757279344358, 0.8173693605840241, -4.137760100625376, 21.770739078237348, 4.698372209175993, 5.222138859297605)"
1970/01/01/01:00:07.753000,382,7,753000000,,"['FL_calf_joint', 'FL_hip_joint', 'FL_thigh_joint', 'FR_calf_joint', 'FR_hip_joint', 'FR_thigh_joint', 'RL_calf_joint', 'RL_hip_joint', 'RL_thigh_joint', 'RR_calf_joint', 'RR_hip_joint', 'RR_thigh_joint']","(-2.170396208446305, -0.02672448007690864, 1.1872585090175969, -2.1275782945029427, 0.06704292970168968, 0.7557276732546043, -2.2152508921335254, -0.045146003034868265, 0.8435199504032909, -2.193942145670407, 0.006076690219766867, 1.212962614384363)","(0.10084556731909067, -1.2702468032548304, 0.8004884161864533, 3.189067880116096, -0.4877087510509597, 1.3160067499411348, 2.13619050086678, 0.3220744599784306, -0.5655635601722555, 1.725553602539608, 0.5822503091887843, 1.6696228241913462)","(13.13377269512696, 2.6164909955986246, 7.312219437885903, 1.593352736002779, -2.3744351794837257, 1.867823008003238, 21.023261014652835, 1.5983332520811844, 5.765559805674993, 12.291894766363132, 1.5915742857246435, 6.332978750972539)"
1970/01/01/01:00:07.773000,383,7,773000000,,"['FL_calf_joint', 'FL_hip_joint', 'FL_thigh_joint', 'FR_calf_joint', 'FR_hip_joint', 'FR_thigh_joint', 'RL_calf_joint', 'RL_hip_joint', 'RL_thigh_joint', 'RR_calf_joint', 'RR_hip_joint', 'RR_thigh_joint']","(-2.163881790532983, -0.04846423366886743, 1.2239419969484304, -2.0944197314455124, 0.05702546742275327, 0.7978484903124183, -2.186376956627514, -0.03868098198752623, 0.8457758667612287, -2.1636134631668007, 0.019758886266140863, 1.2636793950151208)","(0.32091521483934304, -1.0419180209024295, 3.6032762122326942, 0.43518868617529316, -0.5924630521055789, 2.6616494845067256, 1.2780713296389683, 0.34973654091012935, 0.7026887332366432, 1.3443370431460773, 0.8630978826563308, 4.062092575351641)","(-1.4404535443206132, 0.6103206254890947, 4.591359418104728, -2.7076276717102696, -0.30527993914089313, -1.0169505892533737, 10.770256285924958, 1.0995130976267513, 8.98106264006088, 1.469934553425345, 0.031365274057488346, 5.400274451039353)"
1970/01/01/01:00:07.793000,384,7,793000000,,"['FL_calf_joint', 'FL_hip_joint', 'FL_thigh_joint', 'FR_calf_joint', 'FR_hip_joint', 'FR_thigh_joint', 'RL_calf_joint', 'RL_hip_joint', 'RL_thigh_joint', 'RR_calf_joint', 'RR_hip_joint', 'RR_thigh_joint']","(-2.1797312160384905, -0.06379300137211796, 1.3054578445232066, -2.097501868630058, 0.041021340064003375, 0.844206128857877, -2.173237006456624, -0.03126175019601796, 0.8653597879018582, -2.1597713056550543, 0.03479663681684375, 1.3553535269221744)","(-1.7592376789812123, -0.6105497505768963, 4.018261717580135, -0.46096589097336826, -0.7822328375784628, 2.262174848959912, 0.5176422870999, 0.5048940434797735, 1.151325784048246, -0.9412613931236304, 0.5828636689608679, 4.4349013867633005)","(-0.5197651166913957, 0.34442234534302796, -0.9165794083646155, 2.967943338927706, 2.2746381579065984, -0.8905973374140261, 11.08849909451552, -0.36621124692691565, 7.385037868906874, -0.690894135026527, -0.9595898914741507, -0.9484602046944053)"
1970/01/01/01:00:07.813000,385,7,813000000,,"['FL_calf_joint', 'FL_hip_joint', 'FL_thigh_joint', 'FR_calf_joint', 'FR_hip_joint', 'FR_thigh_joint', 'RL_calf_joint', 'RL_hip_joint', 'RL_thigh_joint', 'RR_calf_joint', 'RR_hip_joint', 'RR_thigh_joint']","(-2.2209525364645106, -0.07304691219947035, 1.3719378380182174, -2.112133616343014, 0.028998270920049585, 0.890712380806165, -2.1713768702762843, -0.021072566785232283, 0.8922392176780694, -2.18980224958238, 0.04281227738259563, 1.4284488067339076)","(-2.1830023835055727, -0.28417640863541527, 2.4243231145052193, -0.7079466237515046, -0.49624702752786454, 2.264727924299246, 0.2333389137030677, 0.4945301999186273, 1.3039145190477046, -1.870370696971466, 0.23098180165812487, 2.6366328697388286)","(-1.5420497445733945, -0.26525724565486253, -0.7990367872049795, 6.358700841582781, 1.2579680792796244, -2.2813330030731835, 11.846587071000537, -1.381019162586377, 6.997256524127314, -1.698823429261922, -0.021363421866681054, -1.0759203390709775)"
1970/01/01/01:00:07.833000,386,7,833000000,,"['FL_calf_joint', 'FL_hip_joint', 'FL_thigh_joint', 'FR_calf_joint', 'FR_hip_joint', 'FR_thigh_joint', 'RL_calf_joint', 'RL_hip_joint', 'RL_thigh_joint', 'RR_calf_joint', 'RR_hip_joint', 'RR_thigh_joint']","(-2.2595899291809847, -0.07292776197258544, 1.3965509268906837, -2.1305212343334485, 0.02046043694020394, 0.9373587502745986, -2.17315943593898, -0.012100209687869068, 0.9211325876091205, -2.227286737480025, 0.043514051767926, 1.4548192354621738)","(-1.7891449954041714, 0.21942333886964238, 0.05851347281812047, -0.6086471362390915, -0.39787764261545816, 2.1878050166745076, 0.15368576481584473, 0.4197924966189882, 1.359635215793502, -1.9570232723808045, -0.1178351122836891, -0.005585495645664684)","(-1.7524613430249572, -0.38567994285178286, -0.7177339193229935, 9.094181718759359, 0.7713882303968825, -3.2865467926296734, 12.596821536952095, -1.6880918443097082, 6.801180876797776, -1.9260304300043627, 0.18070014304165094, -1.101580842296433)"
1970/01/01/01:00:07.853000,387,7,853000000,,"['FL_calf_joint', 'FL_hip_joint', 'FL_thigh_joint', 'FR_calf_joint', 'FR_hip_joint', 'FR_thigh_joint', 'RL_calf_joint', 'RL_hip_joint', 'RL_thigh_joint', 'RR_calf_joint', 'RR_hip_joint', 'RR_thigh_joint']","(-2.2884191522167363, -0.06261683640076576, 1.3737980144138815, -2.146102346627522, 0.012963797457293147, 0.9829732547321974, -2.1759518832035054, -0.004428304222657609, 0.9511868043130027, -2.263137217868321, 0.037549487317511954, 1.4274058909350016)","(-1.2600736487843358, 0.6973960741859988, -2.1786323464372703, -0.29857889180201846, -0.3786732971921409, 2.077576602756528, 0.1584909286558398, 0.36438668256273077, 1.3922461220447573, -1.7470629590942335, -0.4096235810605548, -2.6081659992805215)","(-1.481857230449243, -0.1100247698931105, -0.3912584647154125, 10.44193875232166, 0.6062627909760435, -4.071378998659433, 13.287928388504103, -1.8420445528135085, 6.432144136898524, -1.7149910678254816, 0.10333424896953236, -0.7653205852042895)"
1970/01/01/01:00:07.873000,388,7,873000000,,"['FL_calf_joint', 'FL_hip_joint', 'FL_thigh_joint', 'FR_calf_joint', 'FR_hip_joint', 'FR_thigh_joint', 'RL_calf_joint', 'RL_hip_joint', 'RL_thigh_joint', 'RR_calf_joint', 'RR_hip_joint', 'RR_thigh_joint']","(-2.307253797822499, -0.044507474964237126, 1.3128645717239555, -2.155484394243187, 0.00530423207330788, 1.026700513058966, -2.1785565921378316, 0.0022963857333726523, 0.9819263228276531, -2.292620412186821, 0.026752861936498284, 1.3536641980842417)","(-0.7510750032803561, 1.0150936670605637, -3.7336168520406723, 0.06520698772647493, -0.3993342377091621, 1.94660136288426, 0.20355258676969035, 0.32533792630424707, 1.399263197368066, -1.2962691204320054, -0.5927840718985059, -4.586982223165596)","(-1.0906333346282788, 0.25697838485000046, 0.032333538533761974, 10.660800737147724, 0.7157043721733038, -4.58634683146007, 13.908142627693469, -1.921702116863481, 5.973889524738112, -1.3598854286987772, -0.0948138592599519, -0.2448879009499958)"
1970/01/01/01:00:07.893000,389,7,893000000,,"['FL_calf_joint', 'FL_hip_joint', 'FL_thigh_joint', 'FR_calf_joint', 'FR_hip_joint', 'FR_thigh_joint', 'RL_calf_joint', 'RL_hip_joint', 'RL_thigh_joint', 'RR_calf_joint', 'RR_hip_joint', 'RR_thigh_joint']","(-2.316536365518484, -0.021953686689053065, 1.2283087185859705, -2.1581170204078646, -0.0029873395986053097, 1.0679453848364746, -2.180300360733452, 0.008355686277797147, 1.0127064600372409, -2.311326809744374, 0.013288260340581282, 1.248013451399669)","(-0.24452063225175102, 1.176041118652218, -4.594540115086077, 0.3811531312315166, -0.42921842547946626, 1.8059132936961209, 0.2742003085998681, 0.2989279493882163, 1.3709145788636286, -0.6386704591060841, -0.686015257415433, -5.825239685230896)","(-0.8217062813888761, 0.49318145007789527, 0.34352990856945453, 10.24956451815348, 0.9956879184128492, -4.80517693020535, 14.413975591077994, -1.9599694217244292, 5.594849728941648, -1.0923282104716316, -0.27177679502885743, 0.1975406849864747)"
1970/01/01/01:00:07.913000,390,7,913000000,,"['FL_calf_joint', 'FL_hip_joint', 'FL_thigh_joint', 'FR_calf_joint', 'FR_hip_joint', 'FR_thigh_joint', 'RL_calf_joint', 'RL_hip_joint', 'RL_thigh_joint', 'RR_calf_joint', 'RR_hip_joint', 'RR_thigh_joint']","(-2.313592175761566, 0.0029331493912492235, 1.1224959985636653, -2.155119855268608, -0.011791228836577794, 1.1066715323416974, -2.180856365079263, 0.01374773074240565, 1.0436679152774913, -2.314577502698266, -0.0004556610464510058, 1.1165306894641924)","(0.5495445734365987, 1.1795609360025754, -6.532585109335212, 0.6022376193561976, -0.4498166435140779, 1.7717099987389697, 0.25203413205385017, 0.24966643825709625, 1.6638383537548216, 0.27437839357282545, -0.5102773267881858, -7.704765970274529)","(-1.0856239401553451, 0.4140617870868786, -0.07161782974247188, 10.001657236478612, 1.4496944401119478, -1.261364273483136, 15.136224584947419, -2.747122810191252, 8.19463995672362, -1.1687548075548762, 0.3374504242548737, -0.21479829790905747)"
1970/01/01/01:00:07.933000,391,7,933000000,,"['FL_calf_joint', 'FL_hip_joint', 'FL_thigh_joint', 'FR_calf_joint', 'FR_hip_joint', 'FR_thigh_joint', 'RL_calf_joint', 'RL_hip_joint', 'RL_thigh_joint', 'RR_calf_joint', 'RR_hip_joint', 'RR_thigh_joint']","(-2.291441558059171, 0.026367071077734394, 0.9882348714845639, -2.1458306366376236, -0.02114647132323011, 1.1472097396817071, -2.183767085544087, 0.017500114653570265, 1.082103045740065, -2.2945273606257617, -0.009851126391493104, 0.957642443972559)","(1.6804763385678028, 1.1110152845168852, -6.678525018217989, 0.8499386184063191, -0.49609759003074155, 1.9051802792089552, 0.24258401211917513, 0.16175069440452516, 1.836114812272946, 1.7091672516104737, -0.39667849460534, -7.908375017456669)","(-0.6656425691130519, 0.6842372092897766, 1.016545368877189, 8.810657540137706, 2.001715813358691, -2.7233340249390787, 17.079801749324762, -2.2029845018254095, 6.080922855928796, -0.7085629472079087, -0.2961332572299923, 1.0563229519502553)"
1970/01/01/01:00:07.953000,392,7,953000000,,"['FL_calf_joint', 'FL_hip_joint', 'FL_thigh_joint', 'FR_calf_joint', 'FR_hip_joint', 'FR_thigh_joint', 'RL_calf_joint', 'RL_hip_joint', 'RL_thigh_joint', 'RR_calf_joint', 'RR_hip_joint', 'RR_thigh_joint']","(-2.24511885696824, 0.046609374041306495, 0.8625609075111429, -2.1333421740364145, -0.031606917472202234, 1.1889154492027982, -2.184846448930612, 0.020857239963889107, 1.122724859988086, -2.245430386494496, -0.016986227344875537, 0.8094648413708976)","(2.922777629806684, 0.8279022914218763, -5.632958432590651, 0.9830145755133353, -0.5318328618922524, 1.9210437639324962, 0.4583368514819739, 0.18457431609674163, 1.7971429015027411, 3.1272598206460747, -0.2898131982915404, -6.576228837316426)","(0.014926010642129839, 0.8360303400276454, 1.8204193978396912, 8.23386499270988, 2.7795808880513855, -3.7323378702755807, 17.583203253451146, -2.3471162006613646, 4.91937987535703, 0.22640308052868452, -0.5992010621692249, 2.048264364607782)"
1970/01/01/01:00:07.973000,393,7,973000000,,"['FL_calf_joint', 'FL_hip_joint', 'FL_thigh_joint', 'FR_calf_joint', 'FR_hip_joint', 'FR_thigh_joint', 'RL_calf_joint', 'RL_hip_joint', 'RL_thigh_joint', 'RR_calf_joint', 'RR_hip_joint', 'RR_thigh_joint']","(-2.177504166846415, 0.05829829652553098, 0.770860934251778, -2.1182452229051902, -0.0423484824291096, 1.2309392333037934, -2.1813666442721953, 0.025151727151256686, 1.1623863773349727, -2.173926857897124, -0.020923734394016513, 0.7043836262766989)","(3.7634029832735996, 0.27662923172005804, -3.3235446863332285, 1.128538277199529, -0.5302234980984899, 1.9165405227570518, 0.7094656915088224, 0.22640353631387455, 1.7297464602647399, 3.9193213099097757, -0.09665727119154638, -3.675386765777887)","(0.8023137407774401, 0.9334589622261044, 2.4556048349889625, 7.544397346885404, 3.3890597332485823, -5.029954723847959, 17.35848930734261, -2.8414247669718486, 3.931108052292471, 1.3151123506329094, -0.7297422146426225, 2.7823700323625884)"
1970/01/01/01:00:07.993000,394,7,993000000,,"['FL_calf_joint', 'FL_hip_joint', 'FL_thigh_joint', 'FR_calf_joint', 'FR_hip_joint', 'FR_thigh_joint', 'RL_calf_joint', 'RL_hip_joint', 'RL_thigh_joint', 'RR_calf_joint', 'RR_hip_joint', 'RR_thigh_joint']","(-2.1020387714214372, 0.058602105953826644, 0.7333292606846031, -2.100827628256817, -0.051909780695702956, 1.2719193147281587, -2.172147715140161, 0.03035308415864435, 1.1996900051099981, -2.1155304882815518, -0.021453977914686284, 0.6710288374486835)","(3.53594350661524, -0.03715934318334138, -0.4510086626370123, 1.1353717001731025, -0.127932543417498, 1.4956617792075462, 1.1431440544954297, 0.34154387033336675, 1.2483501241715549, 0.6228347843370472, -0.11478894005904203, 0.2735370047282445)","(2.1721167142341846, -0.8598265008181731, 2.9220581766941645, 7.479686348533485, 1.9606554254270847, -4.629949370575195, 15.639708258011918, -3.7952563121156606, 4.939365337590699, 20.74112280324454, 1.477542579904326, 0.36059646262555506)"
1970/01/01/01:00:08.013000,395,8,13000000,,"['FL_calf_joint', 'FL_hip_joint', 'FL_thigh_joint', 'FR_calf_joint', 'FR_hip_joint', 'FR_thigh_joint', 'RL_calf_joint', 'RL_hip_joint', 'RL_thigh_joint', 'RR_calf_joint', 'RR_hip_joint', 'RR_thigh_joint']","(-2.0465043812172485, 0.04936308368892117, 0.7520516070814693, -2.084413368444432, -0.04819983702089914, 1.292462256517795, -2.1441912032544668, 0.033884569432606426, 1.2246682379463358, -2.108496219602795, -0.01940256907845228, 0.6965070875939974)","(0.7067027536299024, -0.4845349112682886, 1.4700210475913749, 0.9978630933694266, 0.25893081071190427, 0.4951039413754459, 1.9333534575747942, 0.07101311368046875, 0.9726377152083798, 1.1912969290525015, 0.1900392879460862, 0.9651625448164269)","(-11.054838861143843, 2.959363735540089, -5.510421925047474, 4.4473138271216826, -0.5610787644426556, -3.7368290359809877, 5.527183542171162, -3.233861834834221, -2.020873951458481, 8.485595729747626, -0.1585382675084002, -2.5363429780546998)"
1970/01/01/01:00:08.033000,396,8,33000000,,"['FL_calf_joint', 'FL_hip_joint', 'FL_thigh_joint', 'FR_calf_joint', 'FR_hip_joint', 'FR_thigh_joint', 'RL_calf_joint', 'RL_hip_joint', 'RL_thigh_joint', 'RR_calf_joint', 'RR_hip_joint', 'RR_thigh_joint']","(-2.0447010507613026, 0.04074096042527753, 0.7927376508061723, -2.062350072526055, -0.05076159459882579, 1.3254703205846683, -2.113754273365701, 0.03360317609045094, 1.2752475938630656, -2.10172185399089, -0.01947739605238219, 0.7318819649153951)","(-0.4106983028216993, -0.30411035901940914, 2.3196701203150796, 0.4356724966542127, -0.29833950965890266, 3.328914744856676, 0.42246653023260805, -0.2809958307431998, 4.043177458006143, -0.033394197987130614, 0.012611453686060536, 2.0673336509653444)","(-0.9007749299272559, 0.05713313814566656, -0.23992191657325979, -3.921645677188165, -0.9812825893242844, 3.042177875313077, -3.2768174536307804, -0.5421107196980817, 2.748119235901724, 6.919795035879107, 1.217457146347182, 6.5080394695014165)"
1970/01/01/01:00:08.053000,397,8,53000000,,"['FL_calf_joint', 'FL_hip_joint', 'FL_thigh_joint', 'FR_calf_joint', 'FR_hip_joint', 'FR_thigh_joint', 'RL_calf_joint', 'RL_hip_joint', 'RL_thigh_joint', 'RR_calf_joint', 'RR_hip_joint', 'RR_thigh_joint']","(-2.066566142308954, 0.04046625112286062, 0.8417568150949659, -2.0701435644997, -0.06198737291759837, 1.3971725734586355, -2.122764471304973, 0.03136731483151589, 1.3567309682383168, -2.1123551754491867, -0.018500717185593096, 0.7775752350221348)","(-1.2208074107997435, -0.061597313435168, 2.4492468199431756, -1.3132266812086182, -0.5168916557750411, 3.4579226238645933, -1.3848924794336317, -0.05129867999278348, 3.7968710259087923, -0.5812847583789382, -0.00538833045150211, 2.3554913856816033)","(5.9292825860010785, -2.538407730479836, -2.529734362687641, -0.5204411008137484, -0.23047461126065072, -1.123110925992096, -0.7701954036487928, 0.5339851308523191, -0.8981687559290119, 9.695693798348994, 1.5956984731916137, 5.186663948292675)"
1970/01/01/01:00:08.073000,398,8,73000000,,"['FL_calf_joint', 'FL_hip_joint', 'FL_thigh_joint', 'FR_calf_joint', 'FR_hip_joint', 'FR_thigh_joint', 'RL_calf_joint', 'RL_hip_joint', 'RL_thigh_joint', 'RR_calf_joint', 'RR_hip_joint', 'RR_thigh_joint']","(-2.095392801930622, 0.03765132859211473, 0.8912763184237065, -2.106117806483441, -0.06861585453245933, 1.4519747289471816, -2.158144487282379, 0.03057203045639767, 1.4164322157352025, -2.1296152007051, -0.018513082479322485, 0.8262759146054615)","(-1.1569883182364618, -0.20991323376340032, 2.3075394550826607, -2.18009962427944, -0.12731317515014942, 1.8311958927861687, -2.040381013878712, -0.0921939682927419, 2.0059869816779754, -0.6230016525378681, 0.006218015729945542, 2.3346770994983013)","(9.086704357974972, -2.4602732480091225, -3.0008797551310993, -1.0468307198559543, 0.2743330832566052, -1.559212647516309, -1.417096467955398, -0.09502364349812226, -1.1941631021754193, 11.377750686839232, 1.9942016320572071, 5.5290008927888135)"
1970/01/01/01:00:08.094000,399,8,93000000,,"['FL_calf_joint', 'FL_hip_joint', 'FL_thigh_joint', 'FR_calf_joint', 'FR_hip_joint', 'FR_thigh_joint', 'RL_calf_joint', 'RL_hip_joint', 'RL_thigh_joint', 'RR_calf_joint', 'RR_hip_joint', 'RR_thigh_joint']","(-2.1217768983344687, 0.03280380932509974, 0.9384600306514841, -2.1544401807217763, -0.0660688320339684, 1.4653818847614692, -2.1998671045969127, 0.02785853075527811, 1.4322039224101477, -2.1467948051477332, -0.018007702063992603, 0.874757578088941)","(-0.8480884340951826, -0.2804486131311044, 2.1485198869961857, -2.6617518929959996, 0.3896302660964573, -0.5302906275744198, -2.1853301762660684, -0.24626989151321874, -0.43071416662557666, -0.5222160010592238, 0.03687118382893559, 2.30640372216226)","(10.781165676822166, -2.4931864938709634, -3.000575886667705, -1.2200387197715798, 0.3481539091142446, -1.5916935158301837, -1.5143976226563178, -0.22285281177316207, -1.2271712986994552, 12.75443681644103, 2.2372645434998124, 5.891675367698907)"
1970/01/01/01:00:08.113000,400,8,113000000,,"['FL_calf_joint', 'FL_hip_joint', 'FL_thigh_joint', 'FR_calf_joint', 'FR_hip_joint', 'FR_thigh_joint', 'RL_calf_joint', 'RL_hip_joint', 'RL_thigh_joint', 'RR_calf_joint', 'RR_hip_joint', 'RR_thigh_joint']","(-2.1416864984022457, 0.02728623234592309, 0.9830550958713982, -2.206740800734268, -0.055007653467674444, 1.4340564937074651, -2.2413086040351375, 0.020475632804892285, 1.4048184286269247, -2.161914527753682, -0.016785685767077396, 0.9230451885466984)","(-0.4860398793990415, -0.2719414179470447, 1.9702875418484749, -2.7117061582316504, 0.7548161456088873, -2.75799807169011, -2.087895641269851, -0.4705927703816864, -2.508298269952759, -0.32212230411283027, 0.08784783076668835, 2.2121665544968874)","(11.402217161542577, -2.899850315855467, -3.0176860142807866, -1.4198031092175016, 0.40140763516232214, -1.7345945277401142, -1.9190639518498536, -0.36657768450198314, -1.183298288485636, 13.643192632346892, 2.20667024774601, 6.051567227854629)"
1970/01/01/01:00:08.133000,401,8,133000000,,"['FL_calf_joint', 'FL_hip_joint', 'FL_thigh_joint', 'FR_calf_joint', 'FR_hip_joint', 'FR_thigh_joint', 'RL_calf_joint', 'RL_hip_joint', 'RL_thigh_joint', 'RR_calf_joint', 'RR_hip_joint', 'RR_thigh_joint']","(-2.1543829884477343, 0.02140654243451312, 1.0249623736336133, -2.258901741147872, -0.03559046819373801, 1.353740408947659, -2.278950980266928, 0.01193440691049652, 1.3312162618270822, -2.1739637839139654, -0.01488059569751421, 0.9711033818064898)","(-0.12197856448877986, -0.31370373763070597, 1.9040764036159707, -2.4722896749609387, 1.1681929928937658, -5.109149810439809, -1.7461262113958727, -0.47285332626913085, -4.62982470936996, -0.2106387838550896, 0.09530158532077442, 2.300635500947991)","(10.838059996087537, -2.9120303119279365, -2.1808767523152297, -1.3782110894303834, 0.16833578875842825, -0.6235498060970386, -1.3191878833442185, 0.0010403776352485572, -0.40827619987140373, 14.966565022725728, 2.3679393337057544, 6.036740530194164)"
1970/01/01/01:00:08.153000,402,8,153000000,,"['FL_calf_joint', 'FL_hip_joint', 'FL_thigh_joint', 'FR_calf_joint', 'FR_hip_joint', 'FR_thigh_joint', 'RL_calf_joint', 'RL_hip_joint', 'RL_thigh_joint', 'RR_calf_joint', 'RR_hip_joint', 'RR_thigh_joint']","(-2.1605391499766515, 0.015153922697142441, 1.0659722070408977, -2.2995852857672343, -0.011041792902642733, 1.2331939837630062, -2.3066392098213635, 0.0026274160613617425, 1.2239551521889904, -2.1837450404527523, -0.012881169471924636, 1.0207799832333935)","(0.12177786757327369, -0.30420402661096474, 1.8743082208774422, -1.6159185076996305, 1.3346730865341927, -6.8047203356915835, -1.0720330657215476, -0.5020986712327391, -5.949625417993404, -0.028503380871583772, 0.10422926501438456, 2.3133670233838712)","(10.19511832203369, -3.236838276569225, -1.816731127724689, -1.3532165669803597, 0.04279659948318182, 0.006234277954851208, -1.153796480332959, 0.18986655944477349, 0.14030139819916698, 15.998025896332384, 2.4240087456227046, 5.637904209822796)"
1970/01/01/01:00:08.173000,403,8,173000000,,"['FL_calf_joint', 'FL_hip_joint', 'FL_thigh_joint', 'FR_calf_joint', 'FR_hip_joint', 'FR_thigh_joint', 'RL_calf_joint', 'RL_hip_joint', 'RL_thigh_joint', 'RR_calf_joint', 'RR_hip_joint', 'RR_thigh_joint']","(-2.162539419503851, 0.009001207908343467, 1.1064163125167168, -2.3189499119960253, 0.015543178016547365, 1.0849521428844158, -2.3180497940654794, -0.0070669008593888805, 1.0960834639863855, -2.1898384232227155, -0.01089446681923878, 1.0703566845320243)","(0.268176330638938, -0.30037616042725174, 1.8498579917503317, -0.24179535533911967, 1.3855090395696914, -7.9320138342696165, -0.02075516491221041, -0.509022398595324, -6.754108806845699, 0.19844236986005703, 0.10005374914853826, 2.2536988146560253)","(9.765765042196213, -3.5758310723751303, -1.6231833183372792, -1.047756637426411, -0.29543757341915144, 0.39251523311410885, -0.893058366072301, 0.4537830593756047, 0.4378971166564405, 16.590015799101526, 2.565863652573067, 5.352214826718131)"
