time,.header.seq,.header.stamp.secs,.header.stamp.nsecs,.header.frame_id,.name,.position,.velocity,.effort
1970/01/01/01:00:18.008000,896,18,6000000,,"['FL_calf_joint', 'FL_hip_joint', 'FL_thigh_joint', 'FR_calf_joint', 'FR_hip_joint', 'FR_thigh_joint', 'RL_calf_joint', 'RL_hip_joint', 'RL_thigh_joint', 'RR_calf_joint', 'RR_hip_joint', 'RR_thigh_joint']","(-2.1209136979281453, 0.0010278455525236652, 1.0612522807164062, -2.1191226841935844, 0.0006823220567842014, 1.0600779106540053, -2.1419963983264774, 0.0028499719898391618, 1.0305771255941423, -2.1393606664606697, -0.0034261173937464307, 1.0338535174623606)","(0.12578250762939097, 0.0008899418336884435, -0.06597885282855069, 0.11433120495718838, -0.0005493782147576736, -0.05981459958635118, 0.1488838450725749, 0.000995170954714383, -0.0733932816985303, 0.1438386387824575, -0.0004927652793592543, -0.07143165142968741)","(4.018641449989195, -0.1903230896330603, -2.1339729198872326, 3.7649667224380647, -0.11954479469172324, -1.959572026962199, 7.674919407339432, -0.51892992845994, 3.4320414687316214, 7.230758897888193, 0.6196274298791339, 2.830521164101574)"
1970/01/01/01:00:18.026000,897,18,26000000,,"['FL_calf_joint', 'FL_hip_joint', 'FL_thigh_joint', 'FR_calf_joint', 'FR_hip_joint', 'FR_thigh_joint', 'RL_calf_joint', 'RL_hip_joint', 'RL_thigh_joint', 'RR_calf_joint', 'RR_hip_joint', 'RR_thigh_joint']","(-2.1209137159615405, 0.0010307342479318748, 1.0612522812053928, -2.1191227119756775, 0.0006794281215629638, 1.0600778900762329, -2.14199642609407, 0.0028536771147731343, 1.0305771141085565, -2.1393607012775835, -0.0034298176708231765, 1.0338535104752529)","(0.12578234981561312, 0.0008895979694512701, -0.06597876244210596, 0.11433110162147349, -0.0005490593064106635, -0.059814540899281746, 0.1488836808283874, 0.000994644686906774, -0.0733931876013384, 0.14383864730256327, -0.0004922466558845042, -0.07143164899754968)","(4.01864564316292, -0.19084100102674703, -2.1339735498869343, 3.7649723434491844, -0.11902579065835309, -1.9595686752374872, 7.674925391544477, -0.5195937055494314, 3.4320429717958403, 7.230765113874219, 0.6202903804884086, 2.8305224069056623)"
1970/01/01/01:00:18.046000,898,18,46000000,,"['FL_calf_joint', 'FL_hip_joint', 'FL_thigh_joint', 'FR_calf_joint', 'FR_hip_joint', 'FR_thigh_joint', 'RL_calf_joint', 'RL_hip_joint', 'RL_thigh_joint', 'RR_calf_joint', 'RR_hip_joint', 'RR_thigh_joint']","(-2.120913733968191, 0.0010336218945097286, 1.061252281734535, -2.1191227397322034, 0.0006765352064039831, 1.0600778694808284, -2.1419964537967493, 0.002857380877216542, 1.030577102649799, -2.139360736089854, -0.003433516555264582, 1.0338535034579275)","(0.12578219213023953, 0.000889254219586231, -0.06597867213644305, 0.1143309982518297, -0.0005487405179931004, -0.05981448219193486, 0.14888351654604967, 0.000994118605548159, -0.07339309349964036, 0.14383865588918887, -0.0004917282319774741, -0.071431646595353)","(4.018649830751045, -0.1913587243164035, -2.1339741866291435, 3.7649779600616915, -0.11850696951498449, -1.9595653204609422, 7.674931364292241, -0.5202572385060782, 3.4320444700059576, 7.230771328623899, 0.6209530816165258, 2.8305236553312865)"
1970/01/01/01:00:18.064000,899,18,66000000,,"['FL_calf_joint', 'FL_hip_joint', 'FL_thigh_joint', 'FR_calf_joint', 'FR_hip_joint', 'FR_thigh_joint', 'RL_calf_joint', 'RL_hip_joint', 'RL_thigh_joint', 'RR_calf_joint', 'RR_hip_joint', 'RR_thigh_joint']","(-2.1209137519481818, 0.0010365084922865364, 1.061252282303787, -2.119122767463116, 0.000673643311410288, 1.0600778488678184, -2.1419964814345436, 0.002861083277606369, 1.0305770912177916, -2.1393607708975058, -0.003437214047619541, 1.0338534964104698)","(0.12578203457334236, 0.0008889105838077711, -0.06597858191158822, 0.11433089484796059, -0.0005484218497893007, -0.059814423464213645, 0.14888335222553692, 0.000993592710599005, -0.07339299939393717, 0.1438386645426458, -0.0004912100079660433, -0.0714316442234836)","(4.018654012769291, -0.19187625950685408, -2.1339748301070482, 3.76498357226947, -0.11798833128003042, -1.959561962638709, 7.674937325591705, -0.520920527407045, 3.4320459633736586, 7.230777542142312, 0.6216155333623561, 2.830524909362694)"
1970/01/01/01:00:18.086000,900,18,86000000,,"['FL_calf_joint', 'FL_hip_joint', 'FL_thigh_joint', 'FR_calf_joint', 'FR_hip_joint', 'FR_thigh_joint', 'RL_calf_joint', 'RL_hip_joint', 'RL_thigh_joint', 'RR_calf_joint', 'RR_hip_joint', 'RR_thigh_joint']","(-2.1209137699016036, 0.0010393940412889435, 1.0612522829131041, -2.119122795168371, 0.0006707524366937889, 1.060077828237235, -2.141996509007485, 0.0028647843163769338, 1.030577079812458, -2.1393608057005693, -0.003440910148447607, 1.033853489332965)","(0.12578187714507658, 0.0008885670618337434, -0.0659784917677924, 0.11433079140977459, -0.0005481033019277594, -0.05981436471592133, 0.14888318786649068, 0.0009930670019279168, -0.0733929052838541, 0.1438386732630253, -0.0004906919835777821, -0.07143164188194125)","(4.018658189231787, -0.19239360660030255, -2.13397548031118, 3.7649891800654003, -0.11746987597081335, -1.9595586017754987, 7.674943275446986, -0.5215835723304474, 3.4320474519148765, 7.230783754432924, 0.622277735826427, 2.8305261689861316)"
1970/01/01/01:00:18.106000,901,18,106000000,,"['FL_calf_joint', 'FL_hip_joint', 'FL_thigh_joint', 'FR_calf_joint', 'FR_hip_joint', 'FR_thigh_joint', 'RL_calf_joint', 'RL_hip_joint', 'RL_thigh_joint', 'RR_calf_joint', 'RR_hip_joint', 'RR_thigh_joint']","(-2.1209137878285436, 0.0010422785415409308, 1.0612522835624372, -2.1191228228479204, 0.0006678625823681728, 1.0600778075891029, -2.141996536515605, 0.002868483993961668, 1.03057706843372, -2.1393608404990694, -0.0034446048582994493, 1.0338534822254983)","(0.12578171984565545, 0.0008882236534763418, -0.06597840170524034, 0.1143306879370378, -0.0005477848746774177, -0.05981430594665858, 0.1488830234688554, 0.0009925414793399067, -0.07339281116955375, 0.1438386820506144, -0.0004901741589972316, -0.07143163957088147)","(4.018662360153753, -0.19291076559979883, -2.1339761372311488, 3.7649947834421034, -0.1169516036077616, -1.9595552378772525, 7.6749492138664, -0.5222463733533121, 3.4320489356413972, 7.230789965498541, 0.6229396891081457, 2.830527434183779)"
1970/01/01/01:00:18.126000,902,18,126000000,,"['FL_calf_joint', 'FL_hip_joint', 'FL_thigh_joint', 'FR_calf_joint', 'FR_hip_joint', 'FR_thigh_joint', 'RL_calf_joint', 'RL_hip_joint', 'RL_thigh_joint', 'RR_calf_joint', 'RR_hip_joint', 'RR_thigh_joint']","(-2.120913805729094, 0.00104516199306115, 1.0612522842517436, -2.119122850501718, 0.0006649737485560081, 1.0600777869234506, -2.1419965639589327, 0.002872182310791338, 1.030577057081496, -2.139360875293038, -0.003448298177734621, 1.0338534750881623)","(0.12578156267510215, 0.0008878803583679857, -0.0659783117237897, 0.11433058442962749, -0.0005474665683111514, -0.05981424715675871, 0.14888285903239, 0.0009920161427297823, -0.07339271705084942, 0.14383869090552115, -0.0004896565340435765, -0.07143163729005461)","(4.018666525552263, -0.19342773650737893, -2.133976800859371, 3.7650003823914773, -0.11643351421100015, -1.959551870951361, 7.674955140854771, -0.5229089305521752, 3.4320504145700927, 7.2307961753455405, 0.6236013933085061, 2.8305287049414303)"
1970/01/01/01:00:18.146000,903,18,146000000,,"['FL_calf_joint', 'FL_hip_joint', 'FL_thigh_joint', 'FR_calf_joint', 'FR_hip_joint', 'FR_thigh_joint', 'RL_calf_joint', 'RL_hip_joint', 'RL_thigh_joint', 'RR_calf_joint', 'RR_hip_joint', 'RR_thigh_joint']","(-2.1209138236033507, 0.0010480443958673646, 1.0612522849809727, -2.119122878129714, 0.00066208593538164, 1.0600777662403083, -2.141996591337496, 0.0028758792672975986, 1.030577045755706, -2.1393609100825035, -0.003451990107309122, 1.0338534679210456)","(0.12578140563364348, 0.0008875371762607617, -0.0659782218238251, 0.11433048088726486, -0.0005471483829678758, -0.05981418834565265, 0.14888269455684056, 0.000991490992010147, -0.07339262292780926, 0.14383869982791725, -0.0004891391087528904, -0.07143163503965495)","(4.018670685442309, -0.1939445193244065, -2.1339774711860504, 3.765005976906971, -0.11591560780205665, -1.95954850100452, 7.674961056421137, -0.5235712440043278, 3.4320518887130973, 7.230802383974684, 0.6242628485273571, 2.8305299812430875)"
1970/01/01/01:00:18.166000,904,18,166000000,,"['FL_calf_joint', 'FL_hip_joint', 'FL_thigh_joint', 'FR_calf_joint', 'FR_hip_joint', 'FR_thigh_joint', 'RL_calf_joint', 'RL_hip_joint', 'RL_thigh_joint', 'RR_calf_joint', 'RR_hip_joint', 'RR_thigh_joint']","(-2.1209138414514044, 0.0010509257499728974, 1.0612522857500792, -2.119122905731855, 0.0006591991429836241, 1.0600777455397061, -2.1419966186513273, 0.002879574863910328, 1.0305770344562646, -2.1393609448674926, -0.003455680647580728, 1.0338534607242442)","(0.12578124872149019, 0.0008871941068590441, -0.0659781320054606, 0.11433037730986509, -0.0005468303189347191, -0.0598141295131832, 0.14888253004219265, 0.0009909660269614177, -0.07339252880041956, 0.143838708818053, -0.0004886218832793754, -0.07143163281968173)","(4.018674839839179, -0.1944611140515816, -2.1339781482008924, 3.7650115669790134, -0.11539788440351592, -1.9595451280411835, 7.674966960569631, -0.5242333137858395, 3.432053358085471, 7.230808591392525, 0.6249240548643922, 2.83053126307248)"
1970/01/01/01:00:18.186000,905,18,186000000,,"['FL_calf_joint', 'FL_hip_joint', 'FL_thigh_joint', 'FR_calf_joint', 'FR_hip_joint', 'FR_thigh_joint', 'RL_calf_joint', 'RL_hip_joint', 'RL_thigh_joint', 'RR_calf_joint', 'RR_hip_joint', 'RR_thigh_joint']","(-2.1209138592733563, 0.0010538060553884065, 1.0612522865590135, -2.119122933308091, 0.0006563133714987401, 1.0600777248216762, -2.1419966459004547, 0.002883269101055852, 1.0305770231830902, -2.1393609796480373, -0.003459369799112544, 1.033853453497847)","(0.12578109193874482, 0.0008868511499457883, -0.06597804226896285, 0.11433027369721033, -0.0005465123763674497, -0.05981407065939751, 0.14888236548804748, 0.0009904412475248044, -0.07339243466855938, 0.14383871787615043, -0.0004881048574516199, -0.07143163063012171)","(4.018678988760638, -0.19497752068933627, -2.133978831894929, 3.7650171526006613, -0.11488034403927735, -1.9595417520690133, 7.6749728533079455, -0.5248951399729828, 3.4320548227033574, 7.230814797602469, 0.6255850124219847, 2.8305325504108714)"
1970/01/01/01:00:18.206000,906,18,206000000,,"['FL_calf_joint', 'FL_hip_joint', 'FL_thigh_joint', 'FR_calf_joint', 'FR_hip_joint', 'FR_thigh_joint', 'RL_calf_joint', 'RL_hip_joint', 'RL_thigh_joint', 'RR_calf_joint', 'RR_hip_joint', 'RR_thigh_joint']","(-2.1209138770693006, 0.001056685312119221, 1.0612522874077266, -2.1191229608583644, 0.0006534286210762019, 1.0600777040862468, -2.1419966730849085, 0.0028869619791613843, 1.0305770119360904, -2.139361014424166, -0.0034630575624641224, 1.033853446241955)","(0.12578093528548973, 0.0008865083051530548, -0.06597795261412923, 0.1143301700489811, -0.0005461945555658793, -0.0598140117837813, 0.14888220089428073, 0.000989916653539797, -0.07339234053222131, 0.14383872700236744, -0.0004875880313101475, -0.07143162847110608)","(4.018683132222432, -0.1954937392365224, -2.1339795222584472, 3.765022733762086, -0.11436298673406903, -1.9595383730948193, 7.674978734641485, -0.5255567226420328, 3.4320562825816614, 7.230821002608055, 0.6262457212994386, 2.8305338432445195)"
1970/01/01/01:00:18.226000,907,18,226000000,,"['FL_calf_joint', 'FL_hip_joint', 'FL_thigh_joint', 'FR_calf_joint', 'FR_hip_joint', 'FR_thigh_joint', 'RL_calf_joint', 'RL_hip_joint', 'RL_thigh_joint', 'RR_calf_joint', 'RR_hip_joint', 'RR_thigh_joint']","(-2.1209138948393402, 0.0010595635201680054, 1.0612522882961697, -2.1191229883826193, 0.0006505448918652235, 1.0600776833334535, -2.1419967002047136, 0.002890653498650586, 1.0305770007151818, -2.1393610491959087, -0.0034667439381985687, 1.033853438956661)","(0.12578077876205354, 0.0008861655722146135, -0.06597786304138661, 0.11433006636519355, -0.0005458768567445951, -0.05981395288659098, 0.14888203626076124, 0.0009893922447734426, -0.0733922463913011, 0.14383873619700188, -0.0004870714049086645, -0.07143162634273433)","(4.0186872702418945, -0.19600976969265008, -2.13398021928167, 3.7650283104544986, -0.11384581251403526, -1.9595349911248459, 7.67498460457694, -0.5262180618679644, 3.4320577377358563, 7.230827206413571, 0.6269061815991794, 2.8305351415532263)"
1970/01/01/01:00:18.246000,908,18,246000000,,"['FL_calf_joint', 'FL_hip_joint', 'FL_thigh_joint', 'FR_calf_joint', 'FR_hip_joint', 'FR_thigh_joint', 'RL_calf_joint', 'RL_hip_joint', 'RL_thigh_joint', 'RR_calf_joint', 'RR_hip_joint', 'RR_thigh_joint']","(-2.1209139125835748, 0.0010624406795338714, 1.061252289224293, -2.119123015880799, 0.0006476621840292296, 1.0600776625633248, -2.141996727259902, 0.0028943436599480066, 1.0305769895202719, -2.139361083963294, -0.003470428926878988, 1.0338534316420676)","(0.12578062236858267, 0.0008858229508965258, -0.06597777355092273, 0.11432996264536026, -0.0005455592801793436, -0.05981389396724474, 0.14888187158718943, 0.0009888680212854137, -0.07339215224592023, 0.14383874546031594, -0.00048655497821540445, -0.07143162424504847)","(4.018691402835087, -0.19652561205510383, -2.1339809229537927, 3.765033882669189, -0.1133288214064379, -1.9595316061657408, 7.6749904631221035, -0.5268791577269557, 3.432059188181584, 7.230833409023102, 0.6275663934223416, 2.8305364453212247)"
1970/01/01/01:00:18.266000,909,18,266000000,,"['FL_calf_joint', 'FL_hip_joint', 'FL_thigh_joint', 'FR_calf_joint', 'FR_hip_joint', 'FR_thigh_joint', 'RL_calf_joint', 'RL_hip_joint', 'RL_thigh_joint', 'RR_calf_joint', 'RR_hip_joint', 'RR_thigh_joint']","(-2.120913930302109, 0.0010653167902132665, 1.0612522901920443, -2.1191230433528414, 0.0006447804977334215, 1.0600776417758944, -2.1419967542504965, 0.0028980324634755306, 1.0305769783512684, -2.139361118726356, -0.0034741125290720376, 1.0338534242982726)","(0.12578046610523103, 0.0008854804408617204, -0.0659776841429196, 0.11432985888950961, -0.0005452418260669553, -0.059813835025915064, 0.148881706873337, 0.0009883439828257735, -0.0733920580958225, 0.14383875479233066, -0.0004860387511365869, -0.07143162217792758)","(4.0186955300222325, -0.19704126632151014, -2.1339816332667225, 3.765039450397367, -0.11281201343952808, -1.9595282182273053, 7.674996310281129, -0.5275400102931691, 3.4320606339363295, 7.230839610442087, 0.6282263568711848, 2.8305377545293338)"
1970/01/01/01:00:18.286000,910,18,286000000,,"['FL_calf_joint', 'FL_hip_joint', 'FL_thigh_joint', 'FR_calf_joint', 'FR_hip_joint', 'FR_thigh_joint', 'RL_calf_joint', 'RL_hip_joint', 'RL_thigh_joint', 'RR_calf_joint', 'RR_hip_joint', 'RR_thigh_joint']","(-2.1209139479950476, 0.0010681918521946443, 1.0612522911993745, -2.119123070798686, 0.0006418998331518821, 1.0600776209711977, -2.1419967811765313, 0.0029017199096532664, 1.0305769672080771, -2.1393611534851225, -0.0034777947453425995, 1.0338534169253846)","(0.12578030997212356, 0.0008851380417459539, -0.06597759481729201, 0.11432975509726237, -0.0005449244947428673, -0.05981377606196382, 0.1488815421190115, 0.0009878201292062437, -0.07339196394109745, 0.14383876419344793, -0.00048552272385881794, -0.0714316201414276)","(4.018699651818248, -0.19755673248899752, -2.133982350208166, 3.7650450136273568, -0.11229538864392188, -1.959524827312646, 7.675002146061902, -0.5282006196426199, 3.432062075017237, 7.230845810672174, 0.6288860720468273, 2.83053906915963)"
1970/01/01/01:00:18.306000,911,18,306000000,,"['FL_calf_joint', 'FL_hip_joint', 'FL_thigh_joint', 'FR_calf_joint', 'FR_hip_joint', 'FR_thigh_joint', 'RL_calf_joint', 'RL_hip_joint', 'RL_thigh_joint', 'RR_calf_joint', 'RR_hip_joint', 'RR_thigh_joint']","(-2.1209139656624973, 0.0010710658654664584, 1.0612522922462304, -2.1191230982182656, 0.0006390201904657999, 1.060077600149265, -2.1419968080380274, 0.0029054059989004344, 1.0305769560906022, -2.1393611882396275, -0.0034814755762591076, 1.0338534095235028)","(0.12578015396959774, 0.0008847957532712102, -0.06597750557453516, 0.11432965126846345, -0.0005446072863772941, -0.059813717075666836, 0.14888137732393672, 0.0009872964603079288, -0.07339186978175584, 0.1438387736639923, -0.00048500689618301697, -0.07143161813571852)","(4.018703768242748, -0.19807201055228996, -2.133983073768841, 3.7650505723504097, -0.11177894704952103, -1.9595214334312208, 7.67500797046983, -0.5288609858488371, 3.4320635114377525, 7.2308520097195075, 0.6295455390522774, 2.830540389194984)"
1970/01/01/01:00:18.326000,912,18,326000000,,"['FL_calf_joint', 'FL_hip_joint', 'FL_thigh_joint', 'FR_calf_joint', 'FR_hip_joint', 'FR_thigh_joint', 'RL_calf_joint', 'RL_hip_joint', 'RL_thigh_joint', 'RR_calf_joint', 'RR_hip_joint', 'RR_thigh_joint']","(-2.1209139833045683, 0.0010739388300109454, 1.0612522933325614, -2.1191231256115195, 0.0006361415698652451, 1.0600775793101356, -2.1419968348350116, 0.00290909073163359, 1.0305769449987476, -2.1393612229899013, -0.0034851550223917727, 1.0338534020927375)","(0.1257799980976824, 0.0008844535751573867, -0.06597741641447304, 0.11432954740280185, -0.0005442902013225561, -0.059813658066439075, 0.1488812124879045, 0.0009867729760398775, -0.07339177561757773, 0.14383878320395926, -0.00048449126835100427, -0.07143161616091283)","(4.0187078793141096, -0.19858710050769404, -2.1339838039380705, 3.76505612655603, -0.11126268868981125, -1.959518036590899, 7.675013783511533, -0.5295211089869567, 3.4320649432179073, 7.230858207587311, 0.6302047579894389, 2.830541714614953)"
1970/01/01/01:00:18.346000,913,18,346000000,,"['FL_calf_joint', 'FL_hip_joint', 'FL_thigh_joint', 'FR_calf_joint', 'FR_hip_joint', 'FR_thigh_joint', 'RL_calf_joint', 'RL_hip_joint', 'RL_thigh_joint', 'RR_calf_joint', 'RR_hip_joint', 'RR_thigh_joint']","(-2.1209140009213687, 0.0010768107458050125, 1.0612522944583125, -2.1191231529783767, 0.0006332639715456168, 1.0600775584538429, -2.141996861567516, 0.002912774108268401, 1.0305769339324122, -2.1393612577359757, -0.0034888330843090287, 1.0338533946331934)","(0.12577984235681747, 0.0008841115071491319, -0.06597732733772337, 0.1143294435001943, -0.0005439732397162047, -0.05981359903426991, 0.1488810476108361, 0.0009862496762347939, -0.07339168144859504, 0.1438387928137332, -0.0004839758401465764, -0.07143161421672978)","(4.018711985049409, -0.1991020023480052, -2.1339845407039393, 3.765061676232964, -0.1107466135972019, -1.959514636798714, 7.675019585193063, -0.5301809891301625, 3.432066370375053, 7.230864404280263, 0.6308637289609436, 2.8305430454007228)"
1970/01/01/01:00:18.366000,914,18,366000000,,"['FL_calf_joint', 'FL_hip_joint', 'FL_thigh_joint', 'FR_calf_joint', 'FR_hip_joint', 'FR_thigh_joint', 'RL_calf_joint', 'RL_hip_joint', 'RL_thigh_joint', 'RR_calf_joint', 'RR_hip_joint', 'RR_thigh_joint']","(-2.120914018513014, 0.0010796816128237907, 1.0612522956234303, -2.119123180318768, 0.0006303873957111961, 1.0600775375804226, -2.141996888235556, 0.002916456129220535, 1.030576922891493, -2.139361292477883, -0.0034925097625828627, 1.0338533871449824)","(0.1257796867470428, 0.0008837695488223126, -0.06597723834403652, 0.11432933956013186, -0.0005436564019763876, -0.059813539978845365, 0.14888088269214794, 0.0009857265607302358, -0.07339158727478846, 0.1438388024936928, -0.00048346061172928567, -0.07143161230378736)","(4.0187160854698085, -0.19961671606755946, -2.1339852840589226, 3.7650672213709235, -0.11023072180780409, -1.9595112340623206, 7.675025375520151, -0.5308406263524592, 3.4320677929274255, 7.230870599802934, 0.6315224520702029, 2.830544381532116)"
1970/01/01/01:00:18.386000,915,18,386000000,,"['FL_calf_joint', 'FL_hip_joint', 'FL_thigh_joint', 'FR_calf_joint', 'FR_hip_joint', 'FR_thigh_joint', 'RL_calf_joint', 'RL_hip_joint', 'RL_thigh_joint', 'RR_calf_joint', 'RR_hip_joint', 'RR_thigh_joint']","(-2.1209140360796166, 0.0010825514310353057, 1.0612522968278615, -2.1191232076326223, 0.0006275118425769222, 1.060077516689912, -2.1419969148391678, 0.00292013679490033, 1.0305769118758903, -2.1393613272156564, -0.0034961850577888143, 1.03385337962822)","(0.12577953126862096, 0.0008834276998269813, -0.06597714943400461, 0.1143292355825862, -0.0005433396882812303, -0.05981348090001072, 0.14888071773186023, 0.0009852036294173059, -0.07339149309601725, 0.14383881224380995, -0.000482945583001707, -0.07143161042146495)","(4.018720180592543, -0.20013124165860766, -2.1339860339873757, 3.7650727619586153, -0.10971501335762883, -1.959507828390294, 7.675031154499425, -0.5315000207275382, 3.432069210892085, 7.230876794159132, 0.6321809274202864, 2.83054572299183)"
1970/01/01/01:00:18.406000,916,18,406000000,,"['FL_calf_joint', 'FL_hip_joint', 'FL_thigh_joint', 'FR_calf_joint', 'FR_hip_joint', 'FR_thigh_joint', 'RL_calf_joint', 'RL_hip_joint', 'RL_thigh_joint', 'RR_calf_joint', 'RR_hip_joint', 'RR_thigh_joint']","(-2.120914053621295, 0.0010854202004040303, 1.0612522980715502, -2.1191232349198668, 0.0006246373123612869, 1.0600774957823482, -2.141996941378369, 0.002923816105719901, 1.030576900885496, -2.13936136194933, -0.003499858970502423, 1.0338533720830165)","(0.1257793759218387, 0.0008830859599458445, -0.06597706060768284, 0.11432913156715738, -0.0005430230989898466, -0.059813421797688095, 0.14888055272942294, 0.00098468088212558, -0.07339139891226502, 0.14383882206475135, -0.00048243075407024093, -0.07143160857044213)","(4.01872427043929, -0.20064557911263323, -2.1339867904825955, 3.765078297982714, -0.1091994882846649, -1.9595044197895777, 7.6750369221362, -0.5321591723280689, 3.43207062428827, 7.230882987352671, 0.6328391551151077, 2.8305470697566757)"
1970/01/01/01:00:18.426000,917,18,426000000,,"['FL_calf_joint', 'FL_hip_joint', 'FL_thigh_joint', 'FR_calf_joint', 'FR_hip_joint', 'FR_thigh_joint', 'RL_calf_joint', 'RL_hip_joint', 'RL_thigh_joint', 'RR_calf_joint', 'RR_hip_joint', 'RR_thigh_joint']","(-2.120914071138168, 0.0010882879208882201, 1.0612522993544404, -2.1191232621804232, 0.0006217638052969932, 1.0600774748577706, -2.141996967853184, 0.002927494062088698, 1.0305768899202032, -2.139361396678934, -0.003503531501297452, 1.033853364509489)","(0.12577922070686748, 0.0008827443287761569, -0.06597697186512944, 0.11432902751369457, -0.0005427066343397724, -0.05981336267123709, 0.14888038768485856, 0.0009841583186657606, -0.07339130472352012, 0.143838831956416, -0.00048191612489637806, -0.07143160675019113)","(4.018728355028662, -0.20115972842048313, -2.1339875535305746, 3.7650838294327946, -0.10868414662909096, -1.959501008268911, 7.675042678437706, -0.5328180812269825, 3.4320720331344403, 7.23088917938904, 0.6334971352578176, 2.830548421807096)"
1970/01/01/01:00:18.446000,918,18,446000000,,"['FL_calf_joint', 'FL_hip_joint', 'FL_thigh_joint', 'FR_calf_joint', 'FR_hip_joint', 'FR_thigh_joint', 'RL_calf_joint', 'RL_hip_joint', 'RL_thigh_joint', 'RR_calf_joint', 'RR_hip_joint', 'RR_thigh_joint']","(-2.1209140886303555, 0.0010911545924416899, 1.0612523006764771, -2.1191232894142153, 0.0006188913216185199, 1.0600774539162163, -2.14199699426364, 0.002931170664412619, 1.030576878979904, -2.139361431404506, -0.0035072026507547704, 1.03385335690776)","(0.12577906562392477, 0.0008824028060034488, -0.06597688320657258, 0.1143289234218075, -0.0005423902946656821, -0.059813303520795266, 0.14888022259774183, 0.0009836359390194178, -0.07339121052959882, 0.14383884191941876, -0.0004814016954791742, -0.07143160496133229)","(4.018732434381177, -0.20167368957141657, -2.13398832312067, 3.7650893562965457, -0.10816898843033734, -1.959497593837625, 7.6750484234085254, -0.5334767474963104, 3.43207343745211, 7.230895370272212, 0.6341548679533233, 2.8305497791217653)"
1970/01/01/01:00:18.467000,919,18,466000000,,"['FL_calf_joint', 'FL_hip_joint', 'FL_thigh_joint', 'FR_calf_joint', 'FR_hip_joint', 'FR_thigh_joint', 'RL_calf_joint', 'RL_hip_joint', 'RL_thigh_joint', 'RR_calf_joint', 'RR_hip_joint', 'RR_thigh_joint']","(-2.120914106097981, 0.0010940202150147016, 1.0612523020376026, -2.119123316621165, 0.0006160198615745571, 1.0600774329577263, -2.1419970206097583, 0.0029348459130975613, 1.0305768680644825, -2.1393614661260774, -0.0035108724194499175, 1.033853349277945)","(0.12577891067326513, 0.0008820613912093197, -0.06597679463234714, 0.11432881929129284, -0.0005420740802699663, -0.05981324434602891, 0.1488800574678289, 0.0009831137427630942, -0.0733911163305629, 0.14383885195371957, -0.0004808874659041116, -0.0714316032034494)","(4.0187365085177875, -0.20218746255464262, -2.1339890992426787, 3.7650948785609724, -0.10765401373298598, -1.9594941765033385, 7.6750541570555235, -0.5341351712086783, 3.432074837258835, 7.230901560005677, 0.6348123533053532, 2.830551141681567)"
1970/01/01/01:00:18.486000,920,18,486000000,,"['FL_calf_joint', 'FL_hip_joint', 'FL_thigh_joint', 'FR_calf_joint', 'FR_hip_joint', 'FR_thigh_joint', 'RL_calf_joint', 'RL_hip_joint', 'RL_thigh_joint', 'RR_calf_joint', 'RR_hip_joint', 'RR_thigh_joint']","(-2.120914123541171, 0.0010968847885486355, 1.061252303437759, -2.1191233438011885, 0.0006131494254191239, 1.0600774119823413, -2.1419970468915617, 0.002938519808547646, 1.0305768571738287, -2.1393615008436857, -0.0035145408079655382, 1.03385334162017)","(0.1257787558552478, 0.0008817200841853653, -0.06597670614266406, 0.11432871512181478, -0.0005417579914309296, -0.05981318514651556, 0.14887989229482845, 0.0009825917300368523, -0.07339102212621017, 0.14383886205995983, -0.00048037343611938884, -0.07143160147719788)","(4.018740577459457, -0.2027010473575859, -2.1339898818831715, 3.7651003962126817, -0.10713922258015418, -1.9594907562753936, 7.675059879383506, -0.5347933524354845, 3.4320762325750325, 7.230907748595973, 0.6354695914189977, 2.8305525094605377)"
1970/01/01/01:00:18.506000,921,18,506000000,,"['FL_calf_joint', 'FL_hip_joint', 'FL_thigh_joint', 'FR_calf_joint', 'FR_hip_joint', 'FR_thigh_joint', 'RL_calf_joint', 'RL_hip_joint', 'RL_thigh_joint', 'RR_calf_joint', 'RR_hip_joint', 'RR_thigh_joint']","(-2.12091414096005, 0.0010997483129830954, 1.0612523048768878, -2.119123370954199, 0.0006102800134222264, 1.0600773909900987, -2.1419970731090734, 0.002942192351165218, 1.0305768463078238, -2.139361535557363, -0.0035182078168878306, 1.033853333934558)","(0.12577860116999834, 0.0008813788844002837, -0.06597661773786867, 0.11432861091312625, -0.0005414420284803635, -0.05981312592225747, 0.14887972707843677, 0.0009820699005699128, -0.07339092791668343, 0.14383887223806513, -0.0004798596061233246, -0.07143159978187118)","(4.018744641227357, -0.20321444396747235, -2.1339906710303493, 3.765105909238887, -0.10662461501740797, -1.9594873331615974, 7.67506559040042, -0.5354512912484329, 3.4320776234207413, 7.2309139360451855, 0.6361265823990304, 2.830553882440758)"
1970/01/01/01:00:18.526000,922,18,526000000,,"['FL_calf_joint', 'FL_hip_joint', 'FL_thigh_joint', 'FR_calf_joint', 'FR_hip_joint', 'FR_thigh_joint', 'RL_calf_joint', 'RL_hip_joint', 'RL_thigh_joint', 'RR_calf_joint', 'RR_hip_joint', 'RR_thigh_joint']","(-2.120914158354749, 0.0011026107882496916, 1.0612523063549286, -2.119123398080113, 0.0006074116258574236, 1.0600773699810464, -2.1419970992623165, 0.0029458635413490697, 1.0305768354663485, -2.1393615702671465, -0.003521873446797663, 1.0338533262212382)","(0.1257784466179123, 0.0008810377916048461, -0.06597652941788261, 0.11432850666482228, -0.0005411261917444818, -0.059813066672771635, 0.1488795618183536, 0.0009815482541173396, -0.07339083370169394, 0.1438388824887148, -0.0004793459760531678, -0.07143159811823208)","(4.018748699842817, -0.20372765236937618, -2.133991466673029, 3.7651114176248726, -0.10611019109325223, -1.9594839071714203, 7.675071290108994, -0.5361089877184341, 3.4320790098192586, 7.23092012235884, 0.6367833263505842, 2.8305552605973814)"
1970/01/01/01:00:18.546000,923,18,546000000,,"['FL_calf_joint', 'FL_hip_joint', 'FL_thigh_joint', 'FR_calf_joint', 'FR_hip_joint', 'FR_thigh_joint', 'RL_calf_joint', 'RL_hip_joint', 'RL_thigh_joint', 'RR_calf_joint', 'RR_hip_joint', 'RR_thigh_joint']","(-2.1209141757253995, 0.0011054722142747053, 1.0612523078718246, -2.11912342517884, 0.000604544263010709, 1.0600773489552218, -2.141997125351309, 0.0029495333794979928, 1.0305768246492857, -2.1393616049730717, -0.00352553769828301, 1.0338533184803405)","(0.12577829219904949, 0.0008806968053593149, -0.06597644118307629, 0.11432840237673382, -0.0005408104815770808, -0.0598130073980779, 0.14887939651421622, 0.0009810267906431352, -0.07339073948139649, 0.1438388928120085, -0.0004788325458239367, -0.07143159648594555)","(4.018752753328009, -0.2042406725479522, -2.1339922687990445, 3.765116921357572, -0.10559595085574927, -1.9594804783154127, 7.675076978516837, -0.5367664419160635, 3.4320803917888907, 7.230926307542303, 0.6374398233797298, 2.8305566439083854)"
1970/01/01/01:00:18.566000,924,18,566000000,,"['FL_calf_joint', 'FL_hip_joint', 'FL_thigh_joint', 'FR_calf_joint', 'FR_hip_joint', 'FR_thigh_joint', 'RL_calf_joint', 'RL_hip_joint', 'RL_thigh_joint', 'RR_calf_joint', 'RR_hip_joint', 'RR_thigh_joint']","(-2.120914193072135, 0.0011083325909773123, 1.0612523094275126, -2.119123452250287, 0.000601677925173405, 1.060077327912671, -2.1419971513760734, 0.002953201866008115, 1.0305768138565092, -2.1393616396751742, -0.003529200571930069, 1.0338533107119963)","(0.12577813791409792, 0.0008803559254092324, -0.06597635303388275, 0.11432829804850009, -0.0005404948982481367, -0.05981294809763798, 0.14887923116583462, 0.0009805055099426229, -0.07339064525543616, 0.14383890320838216, -0.00047831931550172246, -0.0714315948850991)","(4.018756801705839, -0.20475350448700874, -2.1339930773949978, 3.765122420421484, -0.10508189435654708, -1.9594770466005094, 7.675082655629949, -0.5374236539118452, 3.4320817693533465, 7.230932491598368, 0.6380960735927215, 2.8305580323507424)"
1970/01/01/01:00:18.586000,925,18,586000000,,"['FL_calf_joint', 'FL_hip_joint', 'FL_thigh_joint', 'FR_calf_joint', 'FR_hip_joint', 'FR_thigh_joint', 'RL_calf_joint', 'RL_hip_joint', 'RL_thigh_joint', 'RR_calf_joint', 'RR_hip_joint', 'RR_thigh_joint']","(-2.120914210395096, 0.0011111919182731356, 1.0612523110219305, -2.1191234792943643, 0.0005988126126563742, 1.0600773068534366, -2.1419971773366298, 0.0029568690012737875, 1.030576803087893, -2.1393616743734913, -0.0035328620683285905, 1.0338533029163388)","(0.12577798376292507, 0.0008800151512547998, -0.06597626497032955, 0.11432819367978127, -0.0005401794422444068, -0.059812888771420596, 0.14887906577272692, 0.0009799844118414346, -0.07339055102416187, 0.14383891367813706, -0.00047780628515483014, -0.07143159331608194)","(4.018760844998763, -0.20526614816873698, -2.1339938924490998, 3.7651279148030077, -0.10456802164908768, -1.9594736120393774, 7.675088321453335, -0.5380806237761838, 3.4320831425335867, 7.230938674533527, 0.6387520770951878, 2.8305594258987785)"
1970/01/01/01:00:18.607000,926,18,606000000,,"['FL_calf_joint', 'FL_hip_joint', 'FL_thigh_joint', 'FR_calf_joint', 'FR_hip_joint', 'FR_thigh_joint', 'RL_calf_joint', 'RL_hip_joint', 'RL_thigh_joint', 'RR_calf_joint', 'RR_hip_joint', 'RR_thigh_joint']","(-2.120914227694417, 0.0011140501960698046, 1.061252312655018, -2.1191235063109737, 0.0005959483257740317, 1.0600772857775667, -2.1419972032329992, 0.002960534785686697, 1.0305767923433127, -2.139361709068062, -0.003536522188073654, 1.0338532950935049)","(0.12577782974612428, 0.000879674482482571, -0.0659761769926875, 0.1143280892701326, -0.0005398641137777416, -0.05981282941888098, 0.14887890033467113, 0.0009794634962518873, -0.07339045678706593, 0.14383892422160854, -0.000477293454695632, -0.07143159177864028)","(4.018764883230321, -0.20577860357361766, -2.1339947139483053, 3.7651334044855913, -0.1040543327868847, -1.9594701746388927, 7.67509397599284, -0.5387373515775696, 3.432084511352351, 7.2309448563512495, 0.6394078339939222, 2.8305608245300227)"
1970/01/01/01:00:18.626000,927,18,626000000,,"['FL_calf_joint', 'FL_hip_joint', 'FL_thigh_joint', 'FR_calf_joint', 'FR_hip_joint', 'FR_thigh_joint', 'RL_calf_joint', 'RL_hip_joint', 'RL_thigh_joint', 'RR_calf_joint', 'RR_hip_joint', 'RR_thigh_joint']","(-2.1209142449702405, 0.0011169074242678434, 1.0612523143267092, -2.119123533300016, 0.0005930850648550035, 1.0600772646851038, -2.1419972290652014, 0.002964199219637642, 1.030576781622635, -2.139361743758922, -0.003540180931753234, 1.0338532872436366)","(0.1257776758637225, 0.0008793339187353562, -0.06597608910132431, 0.1143279848194318, -0.0005395489132451679, -0.05981277003992068, 0.14887873485131262, 0.000978942762794363, -0.07339036254415061, 0.14383893483908988, -0.0004767808242569667, -0.07143159027309794)","(4.0187689164237, -0.20629087068254362, -2.1339955418801595, 3.7651388894533424, -0.103540827828107, -1.9594667344099075, 7.675099619253694, -0.5393938373865836, 3.4320858758344275, 7.230951037056229, 0.6400633443957385, 2.8305622282207996)"
1970/01/01/01:00:18.646000,928,18,646000000,,"['FL_calf_joint', 'FL_hip_joint', 'FL_thigh_joint', 'FR_calf_joint', 'FR_hip_joint', 'FR_thigh_joint', 'RL_calf_joint', 'RL_hip_joint', 'RL_thigh_joint', 'RR_calf_joint', 'RR_hip_joint', 'RR_thigh_joint']","(-2.120914262222712, 0.001119763602762447, 1.061252316036943, -2.119123560261391, 0.0005902228302332446, 1.0600772435760977, -2.141997254833252, 0.0029678623035138685, 1.0305767709257267, -2.1393617784461103, -0.0035438382999677387, 1.0338532793668742)","(0.12577752211626533, 0.0008789934596664879, -0.06597600129631202, 0.11432788032718876, -0.0005392338410035083, -0.05981271063417415, 0.1488785693221538, 0.000978422211549484, -0.07339026829544786, 0.1438389455310325, -0.00047626839384961917, -0.07143158879921033)","(4.018772944603786, -0.20680294947363712, -2.1339963762310985, 3.765144369691387, -0.10302750682987713, -1.9594632913636374, 7.6751052512400975, -0.5400500812711005, 3.432087236001249, 7.230957216653741, 0.6407186084084929, 2.830563636944657)"
1970/01/01/01:00:18.666000,929,18,666000000,,"['FL_calf_joint', 'FL_hip_joint', 'FL_thigh_joint', 'FR_calf_joint', 'FR_hip_joint', 'FR_thigh_joint', 'RL_calf_joint', 'RL_hip_joint', 'RL_thigh_joint', 'RR_calf_joint', 'RR_hip_joint', 'RR_thigh_joint']","(-2.120914279451977, 0.0011226187314417047, 1.0612523177856525, -2.119123587194993, 0.0005873616222640266, 1.0600772224505945, -2.1419972805371748, 0.002971524037701734, 1.0305767602524547, -2.139361813129664, -0.0035474942933104714, 1.0338532714633617)","(0.1257773685040263, 0.0008786531048325131, -0.06597591357828236, 0.11432777579302779, -0.0005389188975915773, -0.05981265120138816, 0.14887840374705136, 0.0009779018421867789, -0.0733901740409138, 0.14383895629776755, -0.00047575616351844036, -0.07143158735728443)","(4.018776967793516, -0.20731483992438599, -2.1339972169879657, 3.7651498451823793, -0.10251436985378906, -1.959459845510308, 7.6751108719599, -0.5407060832998782, 3.432088591877259, 7.230963395148469, 0.6413736261390338, 2.830565050675922)"
1970/01/01/01:00:18.686000,930,18,686000000,,"['FL_calf_joint', 'FL_hip_joint', 'FL_thigh_joint', 'FR_calf_joint', 'FR_hip_joint', 'FR_thigh_joint', 'RL_calf_joint', 'RL_hip_joint', 'RL_thigh_joint', 'RR_calf_joint', 'RR_hip_joint', 'RR_thigh_joint']","(-2.120914296658185, 0.0011254728101857125, 1.0612523195727732, -2.119123614100717, 0.0005845014413079497, 1.0600772013086441, -2.1419973061769797, 0.002975184422584931, 1.0305767496026768, -2.1393618478096244, -0.003551148912383617, 1.0338532635332465)","(0.12577721502731232, 0.0008783128537056132, -0.06597582594712041, 0.11432767121664603, -0.0005386040831774151, -0.05981259174125098, 0.14887823812552736, 0.0009773816546551726, -0.07339007978050363, 0.1438389671396822, -0.0004752441332455566, -0.07143158594752788)","(4.018780986019012, -0.2078265420107222, -2.133998064136449, 3.765155315909266, -0.102001416961937, -1.9594563968601455, 7.675116481417548, -0.5413618435412036, 3.432089943486194, 7.2309695725445575, 0.6420283976965627, 2.830566469389221)"
1970/01/01/01:00:18.706000,931,18,706000000,,"['FL_calf_joint', 'FL_hip_joint', 'FL_thigh_joint', 'FR_calf_joint', 'FR_hip_joint', 'FR_thigh_joint', 'RL_calf_joint', 'RL_hip_joint', 'RL_thigh_joint', 'RR_calf_joint', 'RR_hip_joint', 'RR_thigh_joint']","(-2.1209143138414888, 0.001128325838867461, 1.0612523213982374, -2.1191236409784526, 0.0005816422877380489, 1.0600771801502926, -2.141997331752692, 0.002978843458545377, 1.0305767389762543, -2.13936188248603, -0.003554802157785808, 1.0338532555766795)","(0.12577706168642072, 0.0008779727060555, -0.06597573840330699, 0.11432756659770571, -0.0005382893982324623, -0.0598125322533579, 0.14887807245719703, 0.0009768616487172111, -0.07338998551393483, 0.14383897805711363, -0.00047473230311270595, -0.07143158456979586)","(4.018784999305192, -0.20833805570769134, -2.1339989176642042, 3.765160781855178, -0.1014886482197344, -1.9594529454234637, 7.675122079617499, -0.5420173620624275, 3.4320912908544603, 7.230975748847202, 0.6426829231886687, 2.830567893058082)"
1970/01/01/01:00:18.726000,932,18,726000000,,"['FL_calf_joint', 'FL_hip_joint', 'FL_thigh_joint', 'FR_calf_joint', 'FR_hip_joint', 'FR_thigh_joint', 'RL_calf_joint', 'RL_hip_joint', 'RL_thigh_joint', 'RR_calf_joint', 'RR_hip_joint', 'RR_thigh_joint']","(-2.1209143310020426, 0.0011311778173546116, 1.0612523232619777, -2.119123667828088, 0.0005787841619415701, 1.060077158975595, -2.1419973572643203, 0.0029825011459605477, 1.0305767283730418, -2.1393619171589204, -0.0035584540301210055, 1.0338532475938136)","(0.12577690848178208, 0.0008776326612382654, -0.06597565094721046, 0.11432746193570104, -0.0005379748431948454, -0.05981247273743675, 0.14887790674173632, 0.0009763418241642078, -0.07338989124112817, 0.1438389890505158, -0.00047422067312693366, -0.0714315832241497)","(4.018789007678585, -0.20884938098757794, -2.1339997775568365, 3.765166243001288, -0.10097606369327712, -1.9594494912103029, 7.675127666566369, -0.5426726389305747, 3.4320926340062887, 7.230981924061553, 0.643337202724772, 2.830569321654713)"
1970/01/01/01:00:18.746000,933,18,746000000,,"['FL_calf_joint', 'FL_hip_joint', 'FL_thigh_joint', 'FR_calf_joint', 'FR_hip_joint', 'FR_thigh_joint', 'RL_calf_joint', 'RL_hip_joint', 'RL_thigh_joint', 'RR_calf_joint', 'RR_hip_joint', 'RR_thigh_joint']","(-2.124997564053766, 0.0022194001211017778, 1.0679900056352354, -2.251830386634186, -0.0025454231722532583, 1.1470879382453365, -2.2684146534038154, 0.003154919249924504, 1.1222005065712901, -2.1493119494896824, -0.003937512833845247, 1.0432727646209496)","(-0.4306355845381568, 0.2293620403905132, 0.16797231412111624, -5.450609730228183, -0.2924167549549987, 1.5847004424131215, -4.830128425685136, 0.19102821228084, 2.400405423689867, -0.09533926383191599, 0.2005785874332756, 0.3418861999361053)","(7.075181657396687, -3.4496006511286277, 1.542714761314759, 3.823642729256216, 3.203732244654395, -10.471785722884084, 4.733411561528257, -1.4485118257472125, -8.63745557329437, 9.90425547990718, 1.3340714581880908, 8.385714952313382)"
1970/01/01/01:00:18.766000,934,18,766000000,,"['FL_calf_joint', 'FL_hip_joint', 'FL_thigh_joint', 'FR_calf_joint', 'FR_hip_joint', 'FR_thigh_joint', 'RL_calf_joint', 'RL_hip_joint', 'RL_thigh_joint', 'RR_calf_joint', 'RR_hip_joint', 'RR_thigh_joint']","(-2.1357254273128508, 0.0031497380684015752, 1.0757670640008108, -2.3145719809029615, 0.014144870395768727, 1.0963178594724363, -2.3223536432594036, -0.007734283322079705, 1.101560958786064, -2.1572860217896874, -0.0030483489339276915, 1.0648849769364945)","(-0.3600831277721125, -0.08660741253424567, 0.6569407357091722, -1.7590435896693206, 1.385991024634989, -4.678667386312171, -1.4583802981386231, -0.8495053623117893, -2.8761524692348495, -0.40805540288681885, -0.03353078168418194, 1.3722436128538273)","(8.040002318174459, -4.05111078207958, 4.7391947837757185, -0.3511145581858508, -0.39273273382520646, -0.5614627939630967, -0.12015676473076997, 0.064438831641763, -0.8626013782587334, 12.984128879477407, 3.1453372721288444, 6.683470681558173)"
1970/01/01/01:00:18.786000,935,18,786000000,,"['FL_calf_joint', 'FL_hip_joint', 'FL_thigh_joint', 'FR_calf_joint', 'FR_hip_joint', 'FR_thigh_joint', 'RL_calf_joint', 'RL_hip_joint', 'RL_thigh_joint', 'RR_calf_joint', 'RR_hip_joint', 'RR_thigh_joint']","(-2.1447299037226752, -0.0001768705845712759, 1.0944789537046038, -2.3203684333920593, 0.043769087321454236, 0.9788950827819614, -2.3268611596378017, -0.02550571615979358, 1.0220889286106525, -2.1752728305918545, -0.003196139130333009, 1.0943347117006432)","(-0.25604186464592593, -0.20029418939806348, 1.1263785055557178, 0.4243149632045906, 1.549472340599332, -6.271269499130427, 0.35153809614636433, -0.9541604697671082, -4.411353399465956, -0.7116007828512898, 0.046251703373265174, 1.591340966539927)","(8.754390136632663, -4.450135208758034, 4.440979928139672, -0.5198396446901354, -0.9620825938354689, 0.010945483513562948, -0.2368463770601732, 0.2413382726721629, -0.3456396240196913, 18.635970724746045, 3.8293662485834807, 7.78027976112125)"
1970/01/01/01:00:18.806000,936,18,806000000,,"['FL_calf_joint', 'FL_hip_joint', 'FL_thigh_joint', 'FR_calf_joint', 'FR_hip_joint', 'FR_thigh_joint', 'RL_calf_joint', 'RL_hip_joint', 'RL_thigh_joint', 'RR_calf_joint', 'RR_hip_joint', 'RR_thigh_joint']","(-2.153332634326734, -0.003924529387447251, 1.1231323998251401, -2.2900134901381035, 0.07063452800815728, 0.8580129424617011, -2.3007337931351763, -0.04282177174070867, 0.9335946847555201, -2.196646674208317, -0.0011969330576064863, 1.1351234890159168)","(-0.22657532631100963, -0.17168958274936663, 1.4610367887553752, 2.1508111328621067, 1.1612595042296856, -5.545728983782053, 1.883596016229974, -0.7860944864908911, -4.190912618206726, -0.4007420460388389, 0.13429936523838032, 1.8414635345289483)","(10.069432600667094, -5.560791369668907, 2.561350545866796, -0.3656504306507271, -1.0959991870730388, 0.5159558266389368, -0.3069446562290361, 0.8897933243359331, 0.3593282053651645, 21.678140635139272, 3.923251676790113, 5.492743543902966)"
1970/01/01/01:00:18.826000,937,18,826000000,,"['FL_calf_joint', 'FL_hip_joint', 'FL_thigh_joint', 'FR_calf_joint', 'FR_hip_joint', 'FR_thigh_joint', 'RL_calf_joint', 'RL_hip_joint', 'RL_thigh_joint', 'RR_calf_joint', 'RR_hip_joint', 'RR_thigh_joint']","(-2.1619798710488247, -0.008243013552185374, 1.1571834544910597, -2.2294597178564146, 0.08521692102209855, 0.7729839407095982, -2.24455008828666, -0.05294259362376863, 0.8657331661818839, -2.2107430451319416, 0.0011984952758403722, 1.1784476703394589)","(-0.11752801397197765, -0.23275513618137622, 1.6022015905872393, 3.5227191944182215, 0.3756888964140928, -3.1004858519912672, 3.3674196739258986, -0.2907060963099123, -2.6578853298952154, 0.1294872957329758, 0.13573528602778817, 1.7978554613761777)","(11.167103880757153, -6.0574917922632405, 0.7148707299282715, -0.22760657374989268, -1.206926855746985, 0.8085438692560967, -0.28001171957705395, 1.0855265008894268, 0.6962030124295104, 22.369116799256396, 4.467856971957357, 4.285075865408229)"
1970/01/01/01:00:18.846000,938,18,846000000,,"['FL_calf_joint', 'FL_hip_joint', 'FL_thigh_joint', 'FR_calf_joint', 'FR_hip_joint', 'FR_thigh_joint', 'RL_calf_joint', 'RL_hip_joint', 'RL_thigh_joint', 'RR_calf_joint', 'RR_hip_joint', 'RR_thigh_joint']","(-2.172016999521059, -0.023493717026026317, 1.1796520237941648, -2.1536291007162394, 0.08080078432208015, 0.7440830679910126, -2.2271606233242958, -0.0532070514185099, 0.8521991129360318, -2.204106694810905, 0.005629271216031739, 1.207672838964986)","(-0.22680850225624893, -1.2656007101110245, 0.5111565507257061, 3.873486481840984, -0.495928894429822, -0.003627574625388874, 1.8564394749949622, 0.26639381970773485, -0.4978618969667947, 1.4866205048249448, 0.4874700635073583, 1.215074711690906)","(14.10739055548447, 0.933928937203472, 8.202498310272656, 0.3162910855746839, -0.6458286035712227, 1.6559668470625966, 23.953352170391682, 1.2755128476710798, -2.796805896376111, 15.02385372692872, 2.789771604487033, 9.007167468869987)"
1970/01/01/01:00:18.866000,939,18,866000000,,"['FL_calf_joint', 'FL_hip_joint', 'FL_thigh_joint', 'FR_calf_joint', 'FR_hip_joint', 'FR_thigh_joint', 'RL_calf_joint', 'RL_hip_joint', 'RL_thigh_joint', 'RR_calf_joint', 'RR_hip_joint', 'RR_thigh_joint']","(-2.172704846277685, -0.04860902247079757, 1.200024571024362, -2.102395133345163, 0.06997192746286718, 0.7748956439300914, -2.1966016571839297, -0.04668413656123516, 0.8472988268525175, -2.174186651085016, 0.018519661591352765, 1.2439834494199342)","(0.6850310028354594, -1.0589554790560245, 2.1568799593245105, 1.4696921931017557, -0.711230926778291, 2.795224844657901, 1.7394202469229973, 0.38588996860424746, 0.22288397980008945, 1.639862416961873, 0.7405362945745966, 2.863155210003097)","(8.16836608770521, 1.7017629313941107, 5.093758187601955, -0.4757573154958057, -1.9723154895280475, 0.6625377186572559, 15.048261931561552, 2.048247683969344, 10.168147947605675, 9.62794703679393, 0.6170057967352465, 4.1786898172646945)"
1970/01/01/01:00:18.886000,940,18,886000000,,"['FL_calf_joint', 'FL_hip_joint', 'FL_thigh_joint', 'FR_calf_joint', 'FR_hip_joint', 'FR_thigh_joint', 'RL_calf_joint', 'RL_hip_joint', 'RL_thigh_joint', 'RR_calf_joint', 'RR_hip_joint', 'RR_thigh_joint']","(-2.173689791179778, -0.06774515491857258, 1.2741390641012895, -2.0980291399324145, 0.052517048753775164, 0.824004831504471, -2.1781685167084444, -0.03845489230672605, 0.8629438511229184, -2.155279613444465, 0.035860161858285444, 1.3295246222362263)","(-1.3241600106981108, -0.8653533300084283, 4.2235323218227245, -0.2579900627234024, -0.9354491892958863, 2.2759261977961818, 0.7366529310314114, 0.5438617752971469, 1.027366574007882, -0.3050314057137662, 0.8115735617453697, 4.7874732304493035)","(-1.3834598630965314, 0.15715433701321757, -0.006797666590608209, 2.311680229728415, 2.2158261660650145, 0.07266969611159801, 11.006492618799545, 0.04793062337148668, 7.313032369139059, -1.7286372571651558, -0.6213031186153151, 0.11464393561627517)"
1970/01/01/01:00:18.906000,941,18,906000000,,"['FL_calf_joint', 'FL_hip_joint', 'FL_thigh_joint', 'FR_calf_joint', 'FR_hip_joint', 'FR_thigh_joint', 'RL_calf_joint', 'RL_hip_joint', 'RL_thigh_joint', 'RR_calf_joint', 'RR_hip_joint', 'RR_thigh_joint']","(-2.2118918329789805, -0.08133246922707116, 1.3499313876722638, -2.1089134950457513, 0.037292767123006776, 0.8708328784924619, -2.1732188848645855, -0.02710682571991807, 0.8879894195848284, -2.1778832831118446, 0.047339535128489096, 1.4142367475212492)","(-2.2294920244790584, -0.5500590207692835, 3.255127706747429, -0.6244297471120097, -0.621124945875857, 2.3295824403496415, 0.32083697348950024, 0.5683501113944484, 1.2598469282973934, -1.6775414112776166, 0.421549120013668, 3.60943355160581)","(-0.3495696667227195, 0.4760250452518969, -0.2243695522272855, 5.177786934722224, 1.6890858691607282, -1.688171489625442, 11.606791361325294, -1.3672322540862436, 6.637580094745852, -0.4040792489095235, -0.3829665484964516, -0.2993892965868259)"
1970/01/01/01:00:18.926000,942,18,926000000,,"['FL_calf_joint', 'FL_hip_joint', 'FL_thigh_joint', 'FR_calf_joint', 'FR_hip_joint', 'FR_thigh_joint', 'RL_calf_joint', 'RL_hip_joint', 'RL_thigh_joint', 'RR_calf_joint', 'RR_hip_joint', 'RR_thigh_joint']","(-2.2533836642910634, -0.0854836840546307, 1.3913555747127022, -2.126404213572803, 0.026718932458591915, 0.9182428578232322, -2.1734095252870134, -0.016816148005120546, 0.9155632688768671, -2.214564676068653, 0.05091961718371696, 1.4596189515355142)","(-2.0214926168757428, -0.036594706983358205, 1.117493742776673, -0.6505795740775786, -0.4827906687072506, 2.265678992469676, 0.18503855405329928, 0.4806391764646566, 1.3245496640537189, -2.0076446564848243, 0.03026412180276236, 1.1783463733861437)","(-0.9151836413504908, 0.14535046045134878, -0.024887475549096205, 8.329545747448144, 1.043244618772467, -2.79414293479563, 12.239133964619002, -1.8086709597208235, 6.523174462560039, -0.7926855942494861, -0.16412496810719857, -0.32508455072115927)"
1970/01/01/01:00:18.947000,943,18,946000000,,"['FL_calf_joint', 'FL_hip_joint', 'FL_thigh_joint', 'FR_calf_joint', 'FR_hip_joint', 'FR_thigh_joint', 'RL_calf_joint', 'RL_hip_joint', 'RL_thigh_joint', 'RR_calf_joint', 'RR_hip_joint', 'RR_thigh_joint']","(-2.2849200389549216, -0.07737921566092343, 1.3845134271560777, -2.1432188173945352, 0.017922757919040855, 0.9648487923505078, -2.1752719762060337, -0.007969523473350115, 0.9442959656254297, -2.25178344548266, 0.046362225557325054, 1.4499740642402807)","(-1.4001529849462753, 0.5945813652129301, -1.2973395339458131, -0.39461021205853264, -0.4299882662451936, 2.1656076012125363, 0.15757236659778617, 0.42320596603022287, 1.3696339764742063, -1.8676393242803606, -0.3459912225535774, -1.5971371909211662)","(-0.170435515008049, 0.8983779401271799, -0.002671574691222922, 10.138442843133832, 0.7959006285026442, -3.6854119353876587, 12.949434936192425, -1.946077941535513, 6.183987434694125, -0.14064188568717917, -0.4090893705241987, -0.24974966229959517)"
1970/01/01/01:00:18.966000,944,18,966000000,,"['FL_calf_joint', 'FL_hip_joint', 'FL_thigh_joint', 'FR_calf_joint', 'FR_hip_joint', 'FR_thigh_joint', 'RL_calf_joint', 'RL_hip_joint', 'RL_thigh_joint', 'RR_calf_joint', 'RR_hip_joint', 'RR_thigh_joint']","(-2.3057761431416095, -0.0591167126361416, 1.3358274060920614, -2.154599574835377, 0.009280796387966639, 1.009890548260782, -2.177483384676563, -0.00025478794144717654, 0.9740015952919983, -2.2843325362991536, 0.03547664132935591, 1.3897626738033901)","(-0.8932126010093393, 1.0310533402807698, -3.1380533572569793, -0.03721344594764808, -0.44901927965255173, 2.0333318683722137, 0.1945699796779612, 0.37186987768023855, 1.3741665161788814, -1.545325311459941, -0.6114535349241184, -3.9201413461137196)","(-0.7242060130028851, 0.6080516517449182, 0.2973939227640354, 10.769409508372682, 0.7688102594675461, -4.28666295647702, 13.553750654757435, -2.0513290407826235, 5.811628188087882, -0.7193309383754629, -0.3015291164241991, 0.05879821362738369)"
1970/01/01/01:00:18.986000,945,18,986000000,,"['FL_calf_joint', 'FL_hip_joint', 'FL_thigh_joint', 'FR_calf_joint', 'FR_hip_joint', 'FR_thigh_joint', 'RL_calf_joint', 'RL_hip_joint', 'RL_thigh_joint', 'RR_calf_joint', 'RR_hip_joint', 'RR_thigh_joint']","(-2.3165079059308686, -0.03434064203464615, 1.2584753343502015, -2.1591171178802426, 0.00014120320829658084, 1.0525456026441748, -2.1790802377467706, 0.006757595397457905, 1.0039020910247203, -2.3070558340804723, 0.020649021554867808, 1.2909524438855575)","(-0.3696581040249809, 1.295123684226178, -4.2507455967168175, 0.306612955757239, -0.48182469554705254, 1.8885906555389183, 0.25474740985487365, 0.33668917852255364, 1.35500407291829, -0.9276418242387932, -0.7745012472612607, -5.50767867859387)","(-0.3231952933391856, 0.9885150273973968, 0.3447975953777487, 10.513136712678683, 0.9846307927538139, -4.618982537886504, 14.102798222353348, -2.1075819647962453, 5.406512650261288, -0.26099082517654026, -0.7076491784672758, 0.15402312355186432)"
1970/01/01/01:00:19.007000,946,19,6000000,,"['FL_calf_joint', 'FL_hip_joint', 'FL_thigh_joint', 'FR_calf_joint', 'FR_hip_joint', 'FR_thigh_joint', 'RL_calf_joint', 'RL_hip_joint', 'RL_thigh_joint', 'RR_calf_joint', 'RR_hip_joint', 'RR_thigh_joint']","(-2.3168820759958955, -0.0060298328020165215, 1.1644584131058746, -2.157381093601673, -0.00978033717055471, 1.092536024071653, -2.1796749627534027, 0.013171850600846469, 1.033511866988114, -2.3158564559746635, 0.004045838500943866, 1.1675959495946282)","(0.2907014370651968, 1.4830952302141158, -5.393475421531145, 0.5611860370722432, -0.5097731704567032, 1.7734726553445341, 0.28836872867333363, 0.29775065822488467, 1.3605085831738082, -0.08199343702457895, -0.8070689494720747, -6.972398600665098)","(-0.9129849306443414, 0.685966712329487, -0.18914637913142052, 10.421737650048419, 0.9101885492909028, -2.4947435221490357, 14.65669473307445, -2.407912562368789, 7.486070616901815, -0.8037664590254361, -0.14890760307203754, -0.44144880203764103)"
1970/01/01/01:00:19.025000,947,19,26000000,,"['FL_calf_joint', 'FL_hip_joint', 'FL_thigh_joint', 'FR_calf_joint', 'FR_hip_joint', 'FR_thigh_joint', 'RL_calf_joint', 'RL_hip_joint', 'RL_thigh_joint', 'RR_calf_joint', 'RR_hip_joint', 'RR_thigh_joint']","(-2.301007896169601, 0.024622351309247392, 1.0483587256976072, -2.14955233552634, -0.02061586075565902, 1.132080634462274, -2.1806103298807855, 0.01853023150160915, 1.0663949967821722, -2.3037212892238648, -0.01116112007225123, 1.0177247738059707)","(1.143635847751601, 1.5116089497925094, -5.9440006906843115, 0.8170823510856402, -0.5782143554098531, 1.807147727662839, 0.3143814010535315, 0.24414339452503392, 1.5285692340170942, 1.0853851968457366, -0.6995617726694865, -7.6784658275544455)","(-0.41672451438202174, 1.1072083603836993, 0.3196142850077788, 9.31287822649703, 1.5582630557574833, -3.2726960946040187, 15.799202648016415, -2.1414617852361806, 5.7682265033770665, -0.4020587363019672, -0.7917674552058125, 0.13798006277320596)"
1970/01/01/01:00:19.046000,948,19,46000000,,"['FL_calf_joint', 'FL_hip_joint', 'FL_thigh_joint', 'FR_calf_joint', 'FR_hip_joint', 'FR_thigh_joint', 'RL_calf_joint', 'RL_hip_joint', 'RL_thigh_joint', 'RR_calf_joint', 'RR_hip_joint', 'RR_thigh_joint']","(-2.2641613568483816, 0.05310461264979427, 0.931949315368799, -2.1374849419654733, -0.03268522409173169, 1.171626591338697, -2.180299277214619, 0.023582201356130206, 1.1007150695900867, -2.264281305049204, -0.024246981415500635, 0.8681760728750367)","(2.291158715509951, 1.3039179027892704, -5.563843409208201, 0.9754093484620527, -0.6148358207252578, 1.7835271362889948, 0.45976489007981813, 0.2599572478178074, 1.4972095961691336, 2.5278996305774974, -0.5774302799106102, -7.098325139467342)","(-0.32995280295556295, 1.039243508539177, 0.42578557809167883, 8.556325506565823, 2.223994389650843, -3.8919916429558397, 16.245170827333865, -2.253246735040854, 5.041119517930024, -0.3772675225304587, -0.9435310619055004, 0.3633439374795753)"
1970/01/01/01:00:19.066000,949,19,66000000,,"['FL_calf_joint', 'FL_hip_joint', 'FL_thigh_joint', 'FR_calf_joint', 'FR_hip_joint', 'FR_thigh_joint', 'RL_calf_joint', 'RL_hip_joint', 'RL_thigh_joint', 'RR_calf_joint', 'RR_hip_joint', 'RR_thigh_joint']","(-2.205133001941057, 0.07304213927420022, 0.835795944331668, -2.1221907366678536, -0.04528442277443201, 1.2109921523826257, -2.1771273031453546, 0.02930049808925883, 1.1347405937938513, -2.1996681833904113, -0.033288029526700846, 0.7482973378248117)","(3.3596724931084467, 0.7448788677391187, -4.084550580093815, 1.1177590550021868, -0.6246227778709219, 1.7643435689601739, 0.6358925358308354, 0.2951621037611127, 1.4477723005262413, 3.6588307800274285, -0.31325440748545175, -4.969509851959888)","(-0.18992401523142455, 0.9045736227714702, 0.6013111499288666, 7.729551285949175, 2.824010578888854, -4.835459272664046, 16.231933861333257, -2.62548572860736, 4.339547980447805, -0.24769040924242258, -0.9240608517056023, 0.6759128757857997)"
1970/01/01/01:00:19.086000,950,19,86000000,,"['FL_calf_joint', 'FL_hip_joint', 'FL_thigh_joint', 'FR_calf_joint', 'FR_hip_joint', 'FR_thigh_joint', 'RL_calf_joint', 'RL_hip_joint', 'RL_thigh_joint', 'RR_calf_joint', 'RR_hip_joint', 'RR_thigh_joint']","(-2.1308597484963094, 0.07811214459759075, 0.7809950301784419, -2.1040235031943713, -0.05796085248994931, 1.2501461271893248, -2.1702984969591412, 0.03569162553112637, 1.1680848021772965, -2.122440098067001, -0.03530299650327251, 0.6866883048653181)","(3.889457230817345, -0.06040887608091483, -1.6967238528488084, 1.2428171585625338, -0.6111636542184373, 1.7277220279880618, 0.830909234925481, 0.3141901443872568, 1.3836769865767806, 3.967028757147012, 0.07144171761741541, -1.6507429917000513)","(-0.0743741113062617, 0.7334529117216347, 0.7861627095789596, 6.9091618473492415, 3.306367634167601, -6.039600806539764, 15.684574447963897, -3.0373921382776476, 3.6584778852062, -0.1473347948490078, -0.8793058025410418, 1.0063979850785447)"
1970/01/01/01:00:19.106000,951,19,106000000,,"['FL_calf_joint', 'FL_hip_joint', 'FL_thigh_joint', 'FR_calf_joint', 'FR_hip_joint', 'FR_thigh_joint', 'RL_calf_joint', 'RL_hip_joint', 'RL_thigh_joint', 'RR_calf_joint', 'RR_hip_joint', 'RR_thigh_joint']","(-2.0651123246814187, 0.06978517055379552, 0.7782649384008664, -2.0863336694163737, -0.06183954116399093, 1.2776478490254615, -2.1526156292121836, 0.0425365916484477, 1.191563267908207, -2.1074245935220786, -0.03337605858128878, 0.7008111578378635)","(2.6995093941644885, -0.7471859463298334, 1.0800124370896926, 1.0698026742407205, 0.14340876614541861, 0.6430230114892936, 1.5894656347806484, 0.26510371489284096, 1.0738656742678137, 0.9162800748216882, 0.19825784342473957, 1.2881162245398725)","(-0.07777110449259261, 0.5239416803100503, 0.8969885156341995, 8.399851013825062, -2.13035653205484, 0.4135507490620949, 10.249584796255798, -3.2355642540539, 6.360349873266829, 18.155415015555086, 0.5943046047495952, 3.195471035384373)"
1970/01/01/01:00:19.126000,952,19,126000000,,"['FL_calf_joint', 'FL_hip_joint', 'FL_thigh_joint', 'FR_calf_joint', 'FR_hip_joint', 'FR_thigh_joint', 'RL_calf_joint', 'RL_hip_joint', 'RL_thigh_joint', 'RR_calf_joint', 'RR_hip_joint', 'RR_thigh_joint']","(-2.0479811990327352, 0.054942158113674644, 0.8170080905819237, -2.0619047163133164, -0.06692477466021263, 1.3081102609296948, -2.126161242452838, 0.04756016255511053, 1.2371153712559062, -2.1029665038727767, -0.031088454128312293, 0.7358104232385116)","(0.07918963091049047, -0.5177439649396112, 2.1694585870532057, 1.366944956419038, -0.6833159901445869, 2.9076610266594654, 1.0650463744398833, 0.21815301113369517, 3.5234137440508397, -0.005356689426975869, 0.11002690072891216, 2.0873551125619216)","(-0.21407683828137927, 0.21642725875654212, -0.31116855658898945, -0.4187574982747897, -0.8276674623945561, 0.8609381468578929, 2.1058455931898123, -1.5639010107622802, 1.339723457864432, 9.366966869485317, 1.737796567307709, 7.325240818259464)"
1970/01/01/01:00:19.146000,953,19,146000000,,"['FL_calf_joint', 'FL_hip_joint', 'FL_thigh_joint', 'FR_calf_joint', 'FR_hip_joint', 'FR_thigh_joint', 'RL_calf_joint', 'RL_hip_joint', 'RL_thigh_joint', 'RR_calf_joint', 'RR_hip_joint', 'RR_thigh_joint']","(-2.066990768404727, 0.05249951913097206, 0.8617479861827837, -2.0666031880535245, -0.08087367153653613, 1.3763717291108826, -2.131711801408505, 0.047127434274582214, 1.316328200549174, -2.113607060181444, -0.02875386386133094, 0.782517760893235)","(-0.9970880637368926, -0.18706290329845437, 2.2042987084728227, -1.0775874147306745, -0.6566089624242413, 3.3854434574570815, -1.1736449182685784, 0.04127294223606415, 3.781257781359858, -0.5168739949587715, 0.12206483698961779, 2.36867714623443)","(5.44923484861418, -2.640277781049719, -2.1299350654307263, -0.49029127060957833, -0.36735138328928163, 0.07958440546760581, -0.5698675723639228, 0.5422404093463191, -0.07907925609272404, 10.196390516495535, 1.750784631157849, 5.032825932979558)"
1970/01/01/01:00:19.166000,954,19,166000000,,"['FL_calf_joint', 'FL_hip_joint', 'FL_thigh_joint', 'FR_calf_joint', 'FR_hip_joint', 'FR_thigh_joint', 'RL_calf_joint', 'RL_hip_joint', 'RL_thigh_joint', 'RR_calf_joint', 'RR_hip_joint', 'RR_thigh_joint']","(-2.0923323954029893, 0.04763869402259324, 0.9061936729023907, -2.100718006439023, -0.08973773004649299, 1.4308509909518516, -2.1650443734504545, 0.04736098701919289, 1.3762538704421834, -2.129391503410492, -0.026119884800462678, 0.8306448422814885)","(-1.0482270984081246, -0.3143945263270195, 2.0789794975261318, -2.097926093191423, -0.18959630671833128, 1.9696158461698594, -1.9495078330970301, -0.0522702782405714, 2.194566929959076, -0.5727286076594889, 0.1322670491816262, 2.3149801697449965)","(8.32685624317665, -2.62103565405026, -2.741173381095725, -0.36209810474980664, -0.3680250914999554, -0.17370064756145664, -0.3162858923825915, 0.5559510256522306, -0.20919567013060192, 11.299095791925172, 1.9820150443527045, 5.207114536468801)"
