time,.header.seq,.header.stamp.secs,.header.stamp.nsecs,.header.frame_id,.orientation.x,.orientation.y,.orientation.z,.orientation.w,.orientation_covariance,.angular_velocity.x,.angular_velocity.y,.angular_velocity.z,.angular_velocity_covariance,.linear_acceleration.x,.linear_acceleration.y,.linear_acceleration.z,.linear_acceleration_covariance
1970/01/01/01:00:04.890000,365,4,890000000,base,-0.000597825792233,-0.0024718663079,0.00594771090285,0.999979078389,"(2.6030820491461885e-07, 0.0, 0.0, 0.0, 2.6030820491461885e-07, 0.0, 0.0, 0.0, 0.0)",0.00676202201906,-0.00475633239583,0.0192095972338,"(2.5e-05, 0.0, 0.0, 0.0, 2.5e-05, 0.0, 0.0, 0.0, 2.5e-05)",0.0475209337879,-0.0138342435285,9.79785819114,"(2.5e-05, 0.0, 0.0, 0.0, 2.5e-05, 0.0, 0.0, 0.0, 2.5e-05)"
1970/01/01/01:00:04.902000,366,4,900000000,base,-0.000597819439426,-0.00247190677923,0.00594771406185,0.999979078274,"(2.6030820491461885e-07, 0.0, 0.0, 0.0, 2.6030820491461885e-07, 0.0, 0.0, 0.0, 0.0)",0.0105653976651,-0.00217274557003,0.00492625113274,"(2.5e-05, 0.0, 0.0, 0.0, 2.5e-05, 0.0, 0.0, 0.0, 2.5e-05)",0.047599634449,-0.017684758947,9.79647525491,"(2.5e-05, 0.0, 0.0, 0.0, 2.5e-05, 0.0, 0.0, 0.0, 2.5e-05)"
1970/01/01/01:00:04.910000,367,4,910000000,base,-0.000597680465965,-0.0024719041756,0.00594771702395,0.999979078346,"(2.6030820491461885e-07, 0.0, 0.0, 0.0, 2.6030820491461885e-07, 0.0, 0.0, 0.0, 0.0)",0.00684454433674,0.00234060161408,0.00403480302113,"(2.5e-05, 0.0, 0.0, 0.0, 2.5e-05, 0.0, 0.0, 0.0, 2.5e-05)",0.0489880317309,-0.0130881535742,9.79831160146,"(2.5e-05, 0.0, 0.0, 0.0, 2.5e-05, 0.0, 0.0, 0.0, 2.5e-05)"
1970/01/01/01:00:04.920000,368,4,920000000,base,-0.000597626185596,-0.00247196359572,0.00594772009052,0.999979078213,"(2.6030820491461885e-07, 0.0, 0.0, 0.0, 2.6030820491461885e-07, 0.0, 0.0, 0.0, 0.0)",0.00192955191956,-0.00823712250787,0.00694298084916,"(2.5e-05, 0.0, 0.0, 0.0, 2.5e-05, 0.0, 0.0, 0.0, 2.5e-05)",0.0466306190743,-0.0169852482246,9.78951820905,"(2.5e-05, 0.0, 0.0, 0.0, 2.5e-05, 0.0, 0.0, 0.0, 2.5e-05)"
1970/01/01/01:00:04.934000,369,4,930000000,base,-0.000597577202391,-0.00247204851019,0.0059477231504,0.999979078015,"(2.6030820491461885e-07, 0.0, 0.0, 0.0, 2.6030820491461885e-07, 0.0, 0.0, 0.0, 0.0)",0.00537332722295,-0.00633757400098,0.00623995978235,"(2.5e-05, 0.0, 0.0, 0.0, 2.5e-05, 0.0, 0.0, 0.0, 2.5e-05)",0.046162890483,-0.0099049309483,9.79307676455,"(2.5e-05, 0.0, 0.0, 0.0, 2.5e-05, 0.0, 0.0, 0.0, 2.5e-05)"
1970/01/01/01:00:04.943000,370,4,940000000,base,-0.00059752615965,-0.0024720551088,0.00594772624847,0.99997907801,"(2.6030820491461885e-07, 0.0, 0.0, 0.0, 2.6030820491461885e-07, 0.0, 0.0, 0.0, 0.0)",0.00574058699395,-0.00899235026081,0.00161068764662,"(2.5e-05, 0.0, 0.0, 0.0, 2.5e-05, 0.0, 0.0, 0.0, 2.5e-05)",0.0562351948938,-0.00749726187616,9.79428491863,"(2.5e-05, 0.0, 0.0, 0.0, 2.5e-05, 0.0, 0.0, 0.0, 2.5e-05)"
1970/01/01/01:00:04.950000,371,4,950000000,base,-0.000597616090803,-0.00247218366304,0.0059477295111,0.999979077619,"(2.6030820491461885e-07, 0.0, 0.0, 0.0, 2.6030820491461885e-07, 0.0, 0.0, 0.0, 0.0)",0.00845316422942,-0.00418107937687,-0.00371111394756,"(2.5e-05, 0.0, 0.0, 0.0, 2.5e-05, 0.0, 0.0, 0.0, 2.5e-05)",0.0410629415845,-0.0107647832259,9.79134750027,"(2.5e-05, 0.0, 0.0, 0.0, 2.5e-05, 0.0, 0.0, 0.0, 2.5e-05)"
1970/01/01/01:00:04.960000,372,4,960000000,base,-0.000597642189923,-0.00247227749104,0.00594773268585,0.999979077353,"(2.6030820491461885e-07, 0.0, 0.0, 0.0, 2.6030820491461885e-07, 0.0, 0.0, 0.0, 0.0)",0.00704310955347,-0.00522211720462,0.00981532751261,"(2.5e-05, 0.0, 0.0, 0.0, 2.5e-05, 0.0, 0.0, 0.0, 2.5e-05)",0.0538647821447,-0.0169105269266,9.79244115164,"(2.5e-05, 0.0, 0.0, 0.0, 2.5e-05, 0.0, 0.0, 0.0, 2.5e-05)"
1970/01/01/01:00:04.980000,373,4,970000000,base,-0.00059771693538,-0.00247227721705,0.00594773599126,0.999979077289,"(2.6030820491461885e-07, 0.0, 0.0, 0.0, 2.6030820491461885e-07, 0.0, 0.0, 0.0, 0.0)",0.00678635829197,0.0014389838717,0.00654601035834,"(2.5e-05, 0.0, 0.0, 0.0, 2.5e-05, 0.0, 0.0, 0.0, 2.5e-05)",0.0460296559788,-0.0138343371052,9.787175171,"(2.5e-05, 0.0, 0.0, 0.0, 2.5e-05, 0.0, 0.0, 0.0, 2.5e-05)"
1970/01/01/01:00:04.980000,374,4,980000000,base,-0.000597730469817,-0.00247227284192,0.00594773919628,0.999979077273,"(2.6030820491461885e-07, 0.0, 0.0, 0.0, 2.6030820491461885e-07, 0.0, 0.0, 0.0, 0.0)",0.0029407061923,-0.00145421080391,0.00802567960524,"(2.5e-05, 0.0, 0.0, 0.0, 2.5e-05, 0.0, 0.0, 0.0, 2.5e-05)",0.0503143874511,-0.0171694315239,9.79050704063,"(2.5e-05, 0.0, 0.0, 0.0, 2.5e-05, 0.0, 0.0, 0.0, 2.5e-05)"
1970/01/01/01:00:04.990000,375,4,990000000,base,-0.000597715806688,-0.0024723407164,0.00594774231351,0.999979077095,"(2.6030820491461885e-07, 0.0, 0.0, 0.0, 2.6030820491461885e-07, 0.0, 0.0, 0.0, 0.0)",-0.00248847692208,-0.00352433230841,0.013349672745,"(2.5e-05, 0.0, 0.0, 0.0, 2.5e-05, 0.0, 0.0, 0.0, 2.5e-05)",0.0477039767711,-0.0139483146089,9.79553766499,"(2.5e-05, 0.0, 0.0, 0.0, 2.5e-05, 0.0, 0.0, 0.0, 2.5e-05)"
1970/01/01/01:00:05.000000,376,5,0,base,-0.00059776434406,-0.0024724293623,0.00594774552232,0.999979076828,"(2.6030820491461885e-07, 0.0, 0.0, 0.0, 2.6030820491461885e-07, 0.0, 0.0, 0.0, 0.0)",0.00881861555355,0.00376470914753,-0.00207017553642,"(2.5e-05, 0.0, 0.0, 0.0, 2.5e-05, 0.0, 0.0, 0.0, 2.5e-05)",0.0524513375521,-0.00668124743221,9.79881803307,"(2.5e-05, 0.0, 0.0, 0.0, 2.5e-05, 0.0, 0.0, 0.0, 2.5e-05)"
1970/01/01/01:00:05.010000,377,5,10000000,base,-0.000597687910403,-0.0024725473592,0.00594774850692,0.999979076564,"(2.6030820491461885e-07, 0.0, 0.0, 0.0, 2.6030820491461885e-07, 0.0, 0.0, 0.0, 0.0)",0.00079156480327,0.0031820562695,0.0133170151853,"(2.5e-05, 0.0, 0.0, 0.0, 2.5e-05, 0.0, 0.0, 0.0, 2.5e-05)",0.0569267495465,-0.0140650593813,9.7995358162,"(2.5e-05, 0.0, 0.0, 0.0, 2.5e-05, 0.0, 0.0, 0.0, 2.5e-05)"
1970/01/01/01:00:05.021000,378,5,20000000,base,-0.000597696278373,-0.00247255349555,0.00594775169166,0.999979076525,"(2.6030820491461885e-07, 0.0, 0.0, 0.0, 2.6030820491461885e-07, 0.0, 0.0, 0.0, 0.0)",0.00698202010343,0.00520742154546,0.00167291310119,"(2.5e-05, 0.0, 0.0, 0.0, 2.5e-05, 0.0, 0.0, 0.0, 2.5e-05)",0.0422700117913,-0.00735853476442,9.79485568143,"(2.5e-05, 0.0, 0.0, 0.0, 2.5e-05, 0.0, 0.0, 0.0, 2.5e-05)"
1970/01/01/01:00:05.031000,379,5,30000000,base,-0.000597694027763,-0.00247253405052,0.0059477548714,0.999979076556,"(2.6030820491461885e-07, 0.0, 0.0, 0.0, 2.6030820491461885e-07, 0.0, 0.0, 0.0, 0.0)",0.00803848951158,0.0003370393181,0.0165953918309,"(2.5e-05, 0.0, 0.0, 0.0, 2.5e-05, 0.0, 0.0, 0.0, 2.5e-05)",0.0522847355777,-0.011900161203,9.79779637795,"(2.5e-05, 0.0, 0.0, 0.0, 2.5e-05, 0.0, 0.0, 0.0, 2.5e-05)"
1970/01/01/01:00:05.040000,380,5,40000000,base,-0.000597692712369,-0.00247246740443,0.0059477580771,0.999979076702,"(2.6030820491461885e-07, 0.0, 0.0, 0.0, 2.6030820491461885e-07, 0.0, 0.0, 0.0, 0.0)",0.00622478780056,-0.00830964500057,-0.000185991761257,"(2.5e-05, 0.0, 0.0, 0.0, 2.5e-05, 0.0, 0.0, 0.0, 2.5e-05)",0.041194389506,-0.00593047069946,9.79747355387,"(2.5e-05, 0.0, 0.0, 0.0, 2.5e-05, 0.0, 0.0, 0.0, 2.5e-05)"
1970/01/01/01:00:05.050000,381,5,50000000,base,-0.000597773060323,-0.0024725562986,0.00594776133083,0.999979076415,"(2.6030820491461885e-07, 0.0, 0.0, 0.0, 2.6030820491461885e-07, 0.0, 0.0, 0.0, 0.0)",0.000401093401924,0.000346667250013,0.00582199641699,"(2.5e-05, 0.0, 0.0, 0.0, 2.5e-05, 0.0, 0.0, 0.0, 2.5e-05)",0.0554089869316,-0.0158965541249,9.78775872899,"(2.5e-05, 0.0, 0.0, 0.0, 2.5e-05, 0.0, 0.0, 0.0, 2.5e-05)"
1970/01/01/01:00:05.060000,382,5,60000000,base,-0.00059775915223,-0.00247253779605,0.00594776448621,0.99997907645,"(2.6030820491461885e-07, 0.0, 0.0, 0.0, 2.6030820491461885e-07, 0.0, 0.0, 0.0, 0.0)",0.00965449463474,-0.0102808544762,-0.000881726918729,"(2.5e-05, 0.0, 0.0, 0.0, 2.5e-05, 0.0, 0.0, 0.0, 2.5e-05)",0.0455953766367,-0.0120943110737,9.80010529735,"(2.5e-05, 0.0, 0.0, 0.0, 2.5e-05, 0.0, 0.0, 0.0, 2.5e-05)"
1970/01/01/01:00:05.070000,383,5,70000000,base,-0.00059773036705,-0.0024726078117,0.0059477675668,0.999979076276,"(2.6030820491461885e-07, 0.0, 0.0, 0.0, 2.6030820491461885e-07, 0.0, 0.0, 0.0, 0.0)",0.00495150294736,-0.0126981796051,0.00448566446127,"(2.5e-05, 0.0, 0.0, 0.0, 2.5e-05, 0.0, 0.0, 0.0, 2.5e-05)",0.0515439030248,-0.00682920819131,9.79888802984,"(2.5e-05, 0.0, 0.0, 0.0, 2.5e-05, 0.0, 0.0, 0.0, 2.5e-05)"
1970/01/01/01:00:05.079000,384,5,80000000,base,-0.000597755677146,-0.00247266678373,0.00594777074136,0.999979076096,"(2.6030820491461885e-07, 0.0, 0.0, 0.0, 2.6030820491461885e-07, 0.0, 0.0, 0.0, 0.0)",0.0116463451352,-0.000932840412324,0.00391630001989,"(2.5e-05, 0.0, 0.0, 0.0, 2.5e-05, 0.0, 0.0, 0.0, 2.5e-05)",0.0519645854033,-0.0132120085035,9.79021540314,"(2.5e-05, 0.0, 0.0, 0.0, 2.5e-05, 0.0, 0.0, 0.0, 2.5e-05)"
1970/01/01/01:00:05.090000,385,5,90000000,base,-0.00059777469652,-0.00247279623623,0.00594777386523,0.999979075746,"(2.6030820491461885e-07, 0.0, 0.0, 0.0, 2.6030820491461885e-07, 0.0, 0.0, 0.0, 0.0)",0.00959240111763,-0.00973461910477,-0.00340489853616,"(2.5e-05, 0.0, 0.0, 0.0, 2.5e-05, 0.0, 0.0, 0.0, 2.5e-05)",0.0498095124309,-0.014696458608,9.79442493329,"(2.5e-05, 0.0, 0.0, 0.0, 2.5e-05, 0.0, 0.0, 0.0, 2.5e-05)"
1970/01/01/01:00:05.105000,386,5,100000000,base,-0.000597826954536,-0.00247285411747,0.00594777708185,0.999979075553,"(2.6030820491461885e-07, 0.0, 0.0, 0.0, 2.6030820491461885e-07, 0.0, 0.0, 0.0, 0.0)",0.00623860302151,-0.0044532301797,0.0099215474563,"(2.5e-05, 0.0, 0.0, 0.0, 2.5e-05, 0.0, 0.0, 0.0, 2.5e-05)",0.0566502156115,-0.0107906595805,9.79275991667,"(2.5e-05, 0.0, 0.0, 0.0, 2.5e-05, 0.0, 0.0, 0.0, 2.5e-05)"
1970/01/01/01:00:05.110000,387,5,110000000,base,-0.00059782876168,-0.00247289921273,0.00594778022049,0.999979075421,"(2.6030820491461885e-07, 0.0, 0.0, 0.0, 2.6030820491461885e-07, 0.0, 0.0, 0.0, 0.0)",0.00817087295961,-0.00468911293945,-0.00128578301202,"(2.5e-05, 0.0, 0.0, 0.0, 2.5e-05, 0.0, 0.0, 0.0, 2.5e-05)",0.044390312847,-0.0120241743612,9.79059203171,"(2.5e-05, 0.0, 0.0, 0.0, 2.5e-05, 0.0, 0.0, 0.0, 2.5e-05)"
1970/01/01/01:00:05.120000,388,5,120000000,base,-0.000597855951581,-0.00247292930814,0.00594778340779,0.999979075312,"(2.6030820491461885e-07, 0.0, 0.0, 0.0, 2.6030820491461885e-07, 0.0, 0.0, 0.0, 0.0)",0.0146961945997,0.0026664677556,0.00768046418637,"(2.5e-05, 0.0, 0.0, 0.0, 2.5e-05, 0.0, 0.0, 0.0, 2.5e-05)",0.0461700510864,-0.0147342791584,9.79837854936,"(2.5e-05, 0.0, 0.0, 0.0, 2.5e-05, 0.0, 0.0, 0.0, 2.5e-05)"
1970/01/01/01:00:05.130000,389,5,130000000,base,-0.000597956469261,-0.00247294108152,0.00594778672486,0.999979075203,"(2.6030820491461885e-07, 0.0, 0.0, 0.0, 2.6030820491461885e-07, 0.0, 0.0, 0.0, 0.0)",0.000623042578878,0.00346611546841,0.00342925194936,"(2.5e-05, 0.0, 0.0, 0.0, 2.5e-05, 0.0, 0.0, 0.0, 2.5e-05)",0.0489688941634,-0.0152449403862,9.79273954546,"(2.5e-05, 0.0, 0.0, 0.0, 2.5e-05, 0.0, 0.0, 0.0, 2.5e-05)"
1970/01/01/01:00:05.140000,390,5,140000000,base,-0.000597988986864,-0.00247309509877,0.0059477898497,0.999979074784,"(2.6030820491461885e-07, 0.0, 0.0, 0.0, 2.6030820491461885e-07, 0.0, 0.0, 0.0, 0.0)",0.000698621875051,-0.00328524847397,0.00509966425535,"(2.5e-05, 0.0, 0.0, 0.0, 2.5e-05, 0.0, 0.0, 0.0, 2.5e-05)",0.0497993883961,-0.0109779926056,9.800452805,"(2.5e-05, 0.0, 0.0, 0.0, 2.5e-05, 0.0, 0.0, 0.0, 2.5e-05)"
1970/01/01/01:00:05.150000,391,5,150000000,base,-0.000597955979059,-0.00247307696125,0.0059477929592,0.99997907483,"(2.6030820491461885e-07, 0.0, 0.0, 0.0, 2.6030820491461885e-07, 0.0, 0.0, 0.0, 0.0)",0.0133741695457,0.000229387222094,0.00554409103663,"(2.5e-05, 0.0, 0.0, 0.0, 2.5e-05, 0.0, 0.0, 0.0, 2.5e-05)",0.0439155708848,-0.00930963863558,9.79489639154,"(2.5e-05, 0.0, 0.0, 0.0, 2.5e-05, 0.0, 0.0, 0.0, 2.5e-05)"
1970/01/01/01:00:05.160000,392,5,160000000,base,-0.000597910731346,-0.00247315235807,0.00594779599544,0.999979074653,"(2.6030820491461885e-07, 0.0, 0.0, 0.0, 2.6030820491461885e-07, 0.0, 0.0, 0.0, 0.0)",0.00147923564328,-0.00226450781487,0.00422963139407,"(2.5e-05, 0.0, 0.0, 0.0, 2.5e-05, 0.0, 0.0, 0.0, 2.5e-05)",0.0486676333067,-0.00492321649619,9.80012723704,"(2.5e-05, 0.0, 0.0, 0.0, 2.5e-05, 0.0, 0.0, 0.0, 2.5e-05)"
1970/01/01/01:00:05.170000,393,5,170000000,base,-0.000597968624158,-0.00247310454245,0.00594779926841,0.999979074717,"(2.6030820491461885e-07, 0.0, 0.0, 0.0, 2.6030820491461885e-07, 0.0, 0.0, 0.0, 0.0)",0.00465515009812,0.00365712279724,0.00134089244631,"(2.5e-05, 0.0, 0.0, 0.0, 2.5e-05, 0.0, 0.0, 0.0, 2.5e-05)",0.0552844121537,-0.0112430606296,9.79671147559,"(2.5e-05, 0.0, 0.0, 0.0, 2.5e-05, 0.0, 0.0, 0.0, 2.5e-05)"
1970/01/01/01:00:05.180000,394,5,180000000,base,-0.000598039046653,-0.00247320535311,0.00594780247881,0.999979074406,"(2.6030820491461885e-07, 0.0, 0.0, 0.0, 2.6030820491461885e-07, 0.0, 0.0, 0.0, 0.0)",0.00114939063624,-0.00990410578733,0.00486815360382,"(2.5e-05, 0.0, 0.0, 0.0, 2.5e-05, 0.0, 0.0, 0.0, 2.5e-05)",0.0328090829774,-0.0167751090234,9.80035543443,"(2.5e-05, 0.0, 0.0, 0.0, 2.5e-05, 0.0, 0.0, 0.0, 2.5e-05)"
1970/01/01/01:00:05.189000,395,5,190000000,base,-0.000598092072341,-0.00247328027605,0.00594780567305,0.99997907417,"(2.6030820491461885e-07, 0.0, 0.0, 0.0, 2.6030820491461885e-07, 0.0, 0.0, 0.0, 0.0)",0.00743591412614,0.00149454912955,0.00485496312411,"(2.5e-05, 0.0, 0.0, 0.0, 2.5e-05, 0.0, 0.0, 0.0, 2.5e-05)",0.0462347900084,-0.00709113489437,9.79176235232,"(2.5e-05, 0.0, 0.0, 0.0, 2.5e-05, 0.0, 0.0, 0.0, 2.5e-05)"
1970/01/01/01:00:05.200000,396,5,200000000,base,-0.000598055622006,-0.00247334984657,0.0059478087206,0.999979074002,"(2.6030820491461885e-07, 0.0, 0.0, 0.0, 2.6030820491461885e-07, 0.0, 0.0, 0.0, 0.0)",0.00717432768093,-0.000494710952298,-0.00237881843709,"(2.5e-05, 0.0, 0.0, 0.0, 2.5e-05, 0.0, 0.0, 0.0, 2.5e-05)",0.0523179620583,-0.0103917366854,9.79515310275,"(2.5e-05, 0.0, 0.0, 0.0, 2.5e-05, 0.0, 0.0, 0.0, 2.5e-05)"
1970/01/01/01:00:05.210000,397,5,210000000,base,-0.000598077887633,-0.00247342614574,0.00594781185996,0.999979073781,"(2.6030820491461885e-07, 0.0, 0.0, 0.0, 2.6030820491461885e-07, 0.0, 0.0, 0.0, 0.0)",0.00045168174947,0.000244028855031,0.00132004602437,"(2.5e-05, 0.0, 0.0, 0.0, 2.5e-05, 0.0, 0.0, 0.0, 2.5e-05)",0.0551433431193,-0.00628261431963,9.7884693227,"(2.5e-05, 0.0, 0.0, 0.0, 2.5e-05, 0.0, 0.0, 0.0, 2.5e-05)"
1970/01/01/01:00:05.226000,398,5,220000000,base,-0.000598042187825,-0.00247348263856,0.00594781491268,0.999979073645,"(2.6030820491461885e-07, 0.0, 0.0, 0.0, 2.6030820491461885e-07, 0.0, 0.0, 0.0, 0.0)",0.0091571960718,-0.000335880669166,0.0107290329723,"(2.5e-05, 0.0, 0.0, 0.0, 2.5e-05, 0.0, 0.0, 0.0, 2.5e-05)",0.0487265935181,-0.0139392971388,9.79552138922,"(2.5e-05, 0.0, 0.0, 0.0, 2.5e-05, 0.0, 0.0, 0.0, 2.5e-05)"
1970/01/01/01:00:05.230000,399,5,230000000,base,-0.000598062392527,-0.00247364039986,0.00594781800059,0.999979073224,"(2.6030820491461885e-07, 0.0, 0.0, 0.0, 2.6030820491461885e-07, 0.0, 0.0, 0.0, 0.0)",0.00251250461008,-0.00119822776359,0.00552861264094,"(2.5e-05, 0.0, 0.0, 0.0, 2.5e-05, 0.0, 0.0, 0.0, 2.5e-05)",0.0457149691462,-0.00901405845821,9.79752020019,"(2.5e-05, 0.0, 0.0, 0.0, 2.5e-05, 0.0, 0.0, 0.0, 2.5e-05)"
1970/01/01/01:00:05.240000,400,5,240000000,base,-0.000598084456504,-0.002473741784,0.00594782112093,0.999979072941,"(2.6030820491461885e-07, 0.0, 0.0, 0.0, 2.6030820491461885e-07, 0.0, 0.0, 0.0, 0.0)",-0.00177807342859,0.00620678297413,1.27606262196e-05,"(2.5e-05, 0.0, 0.0, 0.0, 2.5e-05, 0.0, 0.0, 0.0, 2.5e-05)",0.0483044528842,-0.0060648971874,9.78649635363,"(2.5e-05, 0.0, 0.0, 0.0, 2.5e-05, 0.0, 0.0, 0.0, 2.5e-05)"
1970/01/01/01:00:05.250000,401,5,250000000,base,-0.000598090933294,-0.00247365252056,0.00594782431865,0.999979073139,"(2.6030820491461885e-07, 0.0, 0.0, 0.0, 2.6030820491461885e-07, 0.0, 0.0, 0.0, 0.0)",0.00804020603375,-0.0107181386254,0.00581580338401,"(2.5e-05, 0.0, 0.0, 0.0, 2.5e-05, 0.0, 0.0, 0.0, 2.5e-05)",0.051180025527,-0.0134256040604,9.7970802551,"(2.5e-05, 0.0, 0.0, 0.0, 2.5e-05, 0.0, 0.0, 0.0, 2.5e-05)"
1970/01/01/01:00:05.260000,402,5,260000000,base,-0.000598131674575,-0.00247376295162,0.00594782746163,0.999979072823,"(2.6030820491461885e-07, 0.0, 0.0, 0.0, 2.6030820491461885e-07, 0.0, 0.0, 0.0, 0.0)",0.00622028772014,-0.00991096779026,0.0025722456289,"(2.5e-05, 0.0, 0.0, 0.0, 2.5e-05, 0.0, 0.0, 0.0, 2.5e-05)",0.0515756060141,-0.0156630443601,9.79577679102,"(2.5e-05, 0.0, 0.0, 0.0, 2.5e-05, 0.0, 0.0, 0.0, 2.5e-05)"
1970/01/01/01:00:05.271000,403,5,270000000,base,-0.000598152580469,-0.00247384331544,0.00594783058668,0.999979072593,"(2.6030820491461885e-07, 0.0, 0.0, 0.0, 2.6030820491461885e-07, 0.0, 0.0, 0.0, 0.0)",-0.000284573382985,0.002824588726,0.0105600376022,"(2.5e-05, 0.0, 0.0, 0.0, 2.5e-05, 0.0, 0.0, 0.0, 2.5e-05)",0.0482856337959,-0.0124526579543,9.78906960238,"(2.5e-05, 0.0, 0.0, 0.0, 2.5e-05, 0.0, 0.0, 0.0, 2.5e-05)"
1970/01/01/01:00:05.279000,404,5,280000000,base,-0.000598204936521,-0.00247396153373,0.00594783374131,0.99997907225,"(2.6030820491461885e-07, 0.0, 0.0, 0.0, 2.6030820491461885e-07, 0.0, 0.0, 0.0, 0.0)",0.0099166449964,-0.00711883961788,0.00810263652165,"(2.5e-05, 0.0, 0.0, 0.0, 2.5e-05, 0.0, 0.0, 0.0, 2.5e-05)",0.0483363171597,-0.0118349179773,9.7999828722,"(2.5e-05, 0.0, 0.0, 0.0, 2.5e-05, 0.0, 0.0, 0.0, 2.5e-05)"
1970/01/01/01:00:05.290000,405,5,290000000,base,-0.000598189784806,-0.00247406978144,0.00594783678804,0.999979071974,"(2.6030820491461885e-07, 0.0, 0.0, 0.0, 2.6030820491461885e-07, 0.0, 0.0, 0.0, 0.0)",0.00857701003563,-0.00287346619012,0.00380212234722,"(2.5e-05, 0.0, 0.0, 0.0, 2.5e-05, 0.0, 0.0, 0.0, 2.5e-05)",0.0466860808057,-0.0133777266574,9.79104881737,"(2.5e-05, 0.0, 0.0, 0.0, 2.5e-05, 0.0, 0.0, 0.0, 2.5e-05)"
1970/01/01/01:00:05.300000,406,5,300000000,base,-0.000598203478445,-0.00247414979645,0.00594783989637,0.999979071749,"(2.6030820491461885e-07, 0.0, 0.0, 0.0, 2.6030820491461885e-07, 0.0, 0.0, 0.0, 0.0)",-0.00124765521998,-0.0074977912532,0.00526235443132,"(2.5e-05, 0.0, 0.0, 0.0, 2.5e-05, 0.0, 0.0, 0.0, 2.5e-05)",0.0582856128308,-0.0142374103183,9.78695151572,"(2.5e-05, 0.0, 0.0, 0.0, 2.5e-05, 0.0, 0.0, 0.0, 2.5e-05)"
1970/01/01/01:00:05.310000,407,5,310000000,base,-0.000598191277969,-0.00247426410645,0.00594784294131,0.999979071455,"(2.6030820491461885e-07, 0.0, 0.0, 0.0, 2.6030820491461885e-07, 0.0, 0.0, 0.0, 0.0)",0.0117126248241,-0.000360250737609,-0.00578654600573,"(2.5e-05, 0.0, 0.0, 0.0, 2.5e-05, 0.0, 0.0, 0.0, 2.5e-05)",0.0486651383564,-0.011024982132,9.78899837069,"(2.5e-05, 0.0, 0.0, 0.0, 2.5e-05, 0.0, 0.0, 0.0, 2.5e-05)"
1970/01/01/01:00:05.320000,408,5,320000000,base,-0.00059819536345,-0.0024742990083,0.00594784605521,0.999979071348,"(2.6030820491461885e-07, 0.0, 0.0, 0.0, 2.6030820491461885e-07, 0.0, 0.0, 0.0, 0.0)",0.0083189990478,-0.0097718444946,0.00903383755636,"(2.5e-05, 0.0, 0.0, 0.0, 2.5e-05, 0.0, 0.0, 0.0, 2.5e-05)",0.0493710084796,-0.0191060730952,9.78883743272,"(2.5e-05, 0.0, 0.0, 0.0, 2.5e-05, 0.0, 0.0, 0.0, 2.5e-05)"
1970/01/01/01:00:05.330000,409,5,330000000,base,-0.000598219278525,-0.00247436199828,0.0059478491848,0.999979071159,"(2.6030820491461885e-07, 0.0, 0.0, 0.0, 2.6030820491461885e-07, 0.0, 0.0, 0.0, 0.0)",0.0103370070335,0.00417087440704,0.00459270570357,"(2.5e-05, 0.0, 0.0, 0.0, 2.5e-05, 0.0, 0.0, 0.0, 2.5e-05)",0.0555903675496,-0.0128238974028,9.79596000493,"(2.5e-05, 0.0, 0.0, 0.0, 2.5e-05, 0.0, 0.0, 0.0, 2.5e-05)"
1970/01/01/01:00:05.340000,410,5,340000000,base,-0.000598291639637,-0.00247445158226,0.00594785237829,0.999979070875,"(2.6030820491461885e-07, 0.0, 0.0, 0.0, 2.6030820491461885e-07, 0.0, 0.0, 0.0, 0.0)",0.00772047823902,0.00631160532798,0.00510047885649,"(2.5e-05, 0.0, 0.0, 0.0, 2.5e-05, 0.0, 0.0, 0.0, 2.5e-05)",0.0549165330037,-0.00956910187358,9.80087648334,"(2.5e-05, 0.0, 0.0, 0.0, 2.5e-05, 0.0, 0.0, 0.0, 2.5e-05)"
1970/01/01/01:00:05.350000,411,5,350000000,base,-0.000598236966588,-0.00247447269982,0.00594785539747,0.999979070838,"(2.6030820491461885e-07, 0.0, 0.0, 0.0, 2.6030820491461885e-07, 0.0, 0.0, 0.0, 0.0)",0.00795669155428,-0.00798984323134,0.00720421434807,"(2.5e-05, 0.0, 0.0, 0.0, 2.5e-05, 0.0, 0.0, 0.0, 2.5e-05)",0.0524229822483,-0.013050357076,9.79399487434,"(2.5e-05, 0.0, 0.0, 0.0, 2.5e-05, 0.0, 0.0, 0.0, 2.5e-05)"
1970/01/01/01:00:05.360000,412,5,360000000,base,-0.000598197126225,-0.00247459547826,0.00594785838361,0.99997907054,"(2.6030820491461885e-07, 0.0, 0.0, 0.0, 2.6030820491461885e-07, 0.0, 0.0, 0.0, 0.0)",0.00523752214749,-0.00588991396269,0.0103827554262,"(2.5e-05, 0.0, 0.0, 0.0, 2.5e-05, 0.0, 0.0, 0.0, 2.5e-05)",0.0500748373683,-0.0050404041453,9.79628226241,"(2.5e-05, 0.0, 0.0, 0.0, 2.5e-05, 0.0, 0.0, 0.0, 2.5e-05)"
1970/01/01/01:00:05.370000,413,5,370000000,base,-0.000598320784342,-0.00247473801324,0.00594786162785,0.999979070094,"(2.6030820491461885e-07, 0.0, 0.0, 0.0, 2.6030820491461885e-07, 0.0, 0.0, 0.0, 0.0)",-0.000225255689788,-0.00173061619488,0.00740016689596,"(2.5e-05, 0.0, 0.0, 0.0, 2.5e-05, 0.0, 0.0, 0.0, 2.5e-05)",0.0446590934923,-0.018242117982,9.79056373397,"(2.5e-05, 0.0, 0.0, 0.0, 2.5e-05, 0.0, 0.0, 0.0, 2.5e-05)"
1970/01/01/01:00:05.380000,414,5,380000000,base,-0.000598288895503,-0.00247472129881,0.00594786470049,0.999979070136,"(2.6030820491461885e-07, 0.0, 0.0, 0.0, 2.6030820491461885e-07, 0.0, 0.0, 0.0, 0.0)",-0.00472341480219,-0.00471978909406,0.00257765933991,"(2.5e-05, 0.0, 0.0, 0.0, 2.5e-05, 0.0, 0.0, 0.0, 2.5e-05)",0.0455017246297,-0.0190615237149,9.79292433313,"(2.5e-05, 0.0, 0.0, 0.0, 2.5e-05, 0.0, 0.0, 0.0, 2.5e-05)"
1970/01/01/01:00:05.390000,415,5,390000000,base,-0.000598276936595,-0.00247477831738,0.00594786776387,0.999979069984,"(2.6030820491461885e-07, 0.0, 0.0, 0.0, 2.6030820491461885e-07, 0.0, 0.0, 0.0, 0.0)",0.0106936405617,-0.00334819296961,0.0077963919249,"(2.5e-05, 0.0, 0.0, 0.0, 2.5e-05, 0.0, 0.0, 0.0, 2.5e-05)",0.0480909015728,-0.0107993066369,9.79945417815,"(2.5e-05, 0.0, 0.0, 0.0, 2.5e-05, 0.0, 0.0, 0.0, 2.5e-05)"
1970/01/01/01:00:05.400000,416,5,400000000,base,-0.000598285054203,-0.00247481409212,0.00594787087047,0.999979069872,"(2.6030820491461885e-07, 0.0, 0.0, 0.0, 2.6030820491461885e-07, 0.0, 0.0, 0.0, 0.0)",0.0134697661317,-0.0164810915267,0.0056240816582,"(2.5e-05, 0.0, 0.0, 0.0, 2.5e-05, 0.0, 0.0, 0.0, 2.5e-05)",0.0474317225132,-0.0326475912001,9.79535492987,"(2.5e-05, 0.0, 0.0, 0.0, 2.5e-05, 0.0, 0.0, 0.0, 2.5e-05)"
1970/01/01/01:00:05.418000,417,5,410000000,base,-0.000598321990663,-0.00247501003485,0.005947873935,0.999979069347,"(2.6030820491461885e-07, 0.0, 0.0, 0.0, 2.6030820491461885e-07, 0.0, 0.0, 0.0, 0.0)",0.00490055124285,-0.00234029787493,0.00341367297105,"(2.5e-05, 0.0, 0.0, 0.0, 2.5e-05, 0.0, 0.0, 0.0, 2.5e-05)",0.0523338955205,-0.00743872516575,9.79050710709,"(2.5e-05, 0.0, 0.0, 0.0, 2.5e-05, 0.0, 0.0, 0.0, 2.5e-05)"
1970/01/01/01:00:05.421000,418,5,420000000,base,-0.000598276152032,-0.00247495418718,0.00594787699926,0.999979069494,"(2.6030820491461885e-07, 0.0, 0.0, 0.0, 2.6030820491461885e-07, 0.0, 0.0, 0.0, 0.0)",0.0104392670688,-0.00807051789292,-0.00100309099659,"(2.5e-05, 0.0, 0.0, 0.0, 2.5e-05, 0.0, 0.0, 0.0, 2.5e-05)",0.051805099808,-0.0173070604789,9.79378470255,"(2.5e-05, 0.0, 0.0, 0.0, 2.5e-05, 0.0, 0.0, 0.0, 2.5e-05)"
1970/01/01/01:00:05.430000,419,5,430000000,base,-0.000598401120015,-0.00247495280933,0.00594788031468,0.999979069403,"(2.6030820491461885e-07, 0.0, 0.0, 0.0, 2.6030820491461885e-07, 0.0, 0.0, 0.0, 0.0)",0.00617549276696,-0.00602085644965,0.00584969257624,"(2.5e-05, 0.0, 0.0, 0.0, 2.5e-05, 0.0, 0.0, 0.0, 2.5e-05)",0.0474658841378,-0.017236155581,9.78733356226,"(2.5e-05, 0.0, 0.0, 0.0, 2.5e-05, 0.0, 0.0, 0.0, 2.5e-05)"
1970/01/01/01:00:05.444000,420,5,440000000,base,-0.000598349235277,-0.00247497281237,0.00594788332379,0.999979069367,"(2.6030820491461885e-07, 0.0, 0.0, 0.0, 2.6030820491461885e-07, 0.0, 0.0, 0.0, 0.0)",0.0108002005903,-0.00061489491594,-0.00414795773476,"(2.5e-05, 0.0, 0.0, 0.0, 2.5e-05, 0.0, 0.0, 0.0, 2.5e-05)",0.0570511986967,-0.0143706759571,9.7966014184,"(2.5e-05, 0.0, 0.0, 0.0, 2.5e-05, 0.0, 0.0, 0.0, 2.5e-05)"
1970/01/01/01:00:05.451000,421,5,450000000,base,-0.000598424890011,-0.00247512485947,0.00594788646976,0.999979068927,"(2.6030820491461885e-07, 0.0, 0.0, 0.0, 2.6030820491461885e-07, 0.0, 0.0, 0.0, 0.0)",0.000916636312623,-0.00508399222695,0.00724336660709,"(2.5e-05, 0.0, 0.0, 0.0, 2.5e-05, 0.0, 0.0, 0.0, 2.5e-05)",0.0537405153312,-0.0150458593198,9.78962219896,"(2.5e-05, 0.0, 0.0, 0.0, 2.5e-05, 0.0, 0.0, 0.0, 2.5e-05)"
1970/01/01/01:00:05.461000,422,5,460000000,base,-0.000598427265003,-0.00247533034504,0.00594788946327,0.999979068399,"(2.6030820491461885e-07, 0.0, 0.0, 0.0, 2.6030820491461885e-07, 0.0, 0.0, 0.0, 0.0)",0.0153934723306,0.00190153141811,0.0102121718879,"(2.5e-05, 0.0, 0.0, 0.0, 2.5e-05, 0.0, 0.0, 0.0, 2.5e-05)",0.0504528764514,-0.0144728761249,9.79718488792,"(2.5e-05, 0.0, 0.0, 0.0, 2.5e-05, 0.0, 0.0, 0.0, 2.5e-05)"
1970/01/01/01:00:05.469000,423,5,470000000,base,-0.0005984354155,-0.00247540180991,0.00594789253835,0.999979068199,"(2.6030820491461885e-07, 0.0, 0.0, 0.0, 2.6030820491461885e-07, 0.0, 0.0, 0.0, 0.0)",0.00135975242044,0.00138053323604,0.01102321344,"(2.5e-05, 0.0, 0.0, 0.0, 2.5e-05, 0.0, 0.0, 0.0, 2.5e-05)",0.0472736188678,-0.0158062953384,9.79398089789,"(2.5e-05, 0.0, 0.0, 0.0, 2.5e-05, 0.0, 0.0, 0.0, 2.5e-05)"
1970/01/01/01:00:05.480000,424,5,480000000,base,-0.000598465017284,-0.00247545881626,0.00594789565519,0.999979068021,"(2.6030820491461885e-07, 0.0, 0.0, 0.0, 2.6030820491461885e-07, 0.0, 0.0, 0.0, 0.0)",0.00914015868024,0.00258573836019,0.004559110436,"(2.5e-05, 0.0, 0.0, 0.0, 2.5e-05, 0.0, 0.0, 0.0, 2.5e-05)",0.050016303575,-0.0164455829692,9.80642386627,"(2.5e-05, 0.0, 0.0, 0.0, 2.5e-05, 0.0, 0.0, 0.0, 2.5e-05)"
1970/01/01/01:00:05.490000,425,5,490000000,base,-0.000598469676408,-0.00247543720296,0.00594789877225,0.999979068053,"(2.6030820491461885e-07, 0.0, 0.0, 0.0, 2.6030820491461885e-07, 0.0, 0.0, 0.0, 0.0)",0.00993727016382,-0.00836236932776,0.0026220643015,"(2.5e-05, 0.0, 0.0, 0.0, 2.5e-05, 0.0, 0.0, 0.0, 2.5e-05)",0.0479953861903,-0.0134871512835,9.80375526517,"(2.5e-05, 0.0, 0.0, 0.0, 2.5e-05, 0.0, 0.0, 0.0, 2.5e-05)"
1970/01/01/01:00:05.513000,426,5,500000000,base,-0.000598458314917,-0.00247555008685,0.00594790178707,0.999979067763,"(2.6030820491461885e-07, 0.0, 0.0, 0.0, 2.6030820491461885e-07, 0.0, 0.0, 0.0, 0.0)",0.0134510407065,-0.00441790362119,0.00677409257848,"(2.5e-05, 0.0, 0.0, 0.0, 2.5e-05, 0.0, 0.0, 0.0, 2.5e-05)",0.0542429850295,-0.00757796702026,9.80075071104,"(2.5e-05, 0.0, 0.0, 0.0, 2.5e-05, 0.0, 0.0, 0.0, 2.5e-05)"
1970/01/01/01:00:05.513000,427,5,510000000,base,-0.000598498256264,-0.00247556437445,0.00594790493937,0.999979067685,"(2.6030820491461885e-07, 0.0, 0.0, 0.0, 2.6030820491461885e-07, 0.0, 0.0, 0.0, 0.0)",0.00597971376621,0.00508732747211,0.0089698995836,"(2.5e-05, 0.0, 0.0, 0.0, 2.5e-05, 0.0, 0.0, 0.0, 2.5e-05)",0.0526385043293,-0.0178557802633,9.7977311938,"(2.5e-05, 0.0, 0.0, 0.0, 2.5e-05, 0.0, 0.0, 0.0, 2.5e-05)"
1970/01/01/01:00:05.520000,428,5,520000000,base,-0.000598481698981,-0.00247556330101,0.00594790800482,0.999979067679,"(2.6030820491461885e-07, 0.0, 0.0, 0.0, 2.6030820491461885e-07, 0.0, 0.0, 0.0, 0.0)",0.00683144427071,-0.00744221898362,-0.000258330726324,"(2.5e-05, 0.0, 0.0, 0.0, 2.5e-05, 0.0, 0.0, 0.0, 2.5e-05)",0.0510068047461,-0.00512294628205,9.79291635961,"(2.5e-05, 0.0, 0.0, 0.0, 2.5e-05, 0.0, 0.0, 0.0, 2.5e-05)"
1970/01/01/01:00:05.530000,429,5,530000000,base,-0.000598472501847,-0.00247562916087,0.0059479110439,0.999979067503,"(2.6030820491461885e-07, 0.0, 0.0, 0.0, 2.6030820491461885e-07, 0.0, 0.0, 0.0, 0.0)",0.00132521058799,-0.00751930407693,0.000940584617125,"(2.5e-05, 0.0, 0.0, 0.0, 2.5e-05, 0.0, 0.0, 0.0, 2.5e-05)",0.033992610441,-0.00695952591698,9.79763337896,"(2.5e-05, 0.0, 0.0, 0.0, 2.5e-05, 0.0, 0.0, 0.0, 2.5e-05)"
1970/01/01/01:00:05.540000,430,5,540000000,base,-0.000598414935775,-0.00247574601967,0.00594791397307,0.999979067231,"(2.6030820491461885e-07, 0.0, 0.0, 0.0, 2.6030820491461885e-07, 0.0, 0.0, 0.0, 0.0)",0.00930792961384,-0.00378874830447,0.00304636121697,"(2.5e-05, 0.0, 0.0, 0.0, 2.5e-05, 0.0, 0.0, 0.0, 2.5e-05)",0.0504656321677,-0.00648656223783,9.79510394843,"(2.5e-05, 0.0, 0.0, 0.0, 2.5e-05, 0.0, 0.0, 0.0, 2.5e-05)"
1970/01/01/01:00:05.551000,431,5,550000000,base,-0.0005984723493,-0.00247580758474,0.0059479171214,0.999979067026,"(2.6030820491461885e-07, 0.0, 0.0, 0.0, 2.6030820491461885e-07, 0.0, 0.0, 0.0, 0.0)",0.00194492196931,-0.00713642137018,0.00750117263159,"(2.5e-05, 0.0, 0.0, 0.0, 2.5e-05, 0.0, 0.0, 0.0, 2.5e-05)",0.0545562051791,-0.0138873991736,9.7986710304,"(2.5e-05, 0.0, 0.0, 0.0, 2.5e-05, 0.0, 0.0, 0.0, 2.5e-05)"
1970/01/01/01:00:05.560000,432,5,560000000,base,-0.000598541450038,-0.00247592791208,0.00594792025502,0.999979066668,"(2.6030820491461885e-07, 0.0, 0.0, 0.0, 2.6030820491461885e-07, 0.0, 0.0, 0.0, 0.0)",0.00323270412721,-0.00493431376017,0.0107063937774,"(2.5e-05, 0.0, 0.0, 0.0, 2.5e-05, 0.0, 0.0, 0.0, 2.5e-05)",0.0517753421792,-0.0166381104522,9.79511001915,"(2.5e-05, 0.0, 0.0, 0.0, 2.5e-05, 0.0, 0.0, 0.0, 2.5e-05)"
1970/01/01/01:00:05.570000,433,5,570000000,base,-0.000598559690492,-0.00247589921822,0.00594792338465,0.999979066709,"(2.6030820491461885e-07, 0.0, 0.0, 0.0, 2.6030820491461885e-07, 0.0, 0.0, 0.0, 0.0)",0.0147170743547,0.00127069606991,0.00632693079451,"(2.5e-05, 0.0, 0.0, 0.0, 2.5e-05, 0.0, 0.0, 0.0, 2.5e-05)",0.0508370485191,-0.00835918646768,9.79016658486,"(2.5e-05, 0.0, 0.0, 0.0, 2.5e-05, 0.0, 0.0, 0.0, 2.5e-05)"
1970/01/01/01:00:05.580000,434,5,580000000,base,-0.000598660533371,-0.0024759621905,0.00594792659896,0.999979066474,"(2.6030820491461885e-07, 0.0, 0.0, 0.0, 2.6030820491461885e-07, 0.0, 0.0, 0.0, 0.0)",0.0147064141434,-0.00834877541385,0.00169421717519,"(2.5e-05, 0.0, 0.0, 0.0, 2.5e-05, 0.0, 0.0, 0.0, 2.5e-05)",0.0455954546811,-0.00625051121659,9.79433993305,"(2.5e-05, 0.0, 0.0, 0.0, 2.5e-05, 0.0, 0.0, 0.0, 2.5e-05)"
1970/01/01/01:00:05.589000,435,5,590000000,base,-0.000598619498562,-0.00247604571321,0.00594792956517,0.999979066274,"(2.6030820491461885e-07, 0.0, 0.0, 0.0, 2.6030820491461885e-07, 0.0, 0.0, 0.0, 0.0)",-0.00311205862132,0.000471091894335,0.00513250072557,"(2.5e-05, 0.0, 0.0, 0.0, 2.5e-05, 0.0, 0.0, 0.0, 2.5e-05)",0.0555479425588,-0.00492321805016,9.79262446326,"(2.5e-05, 0.0, 0.0, 0.0, 2.5e-05, 0.0, 0.0, 0.0, 2.5e-05)"
1970/01/01/01:00:05.603000,436,5,600000000,base,-0.000598637631513,-0.00247608257522,0.00594793265334,0.999979066153,"(2.6030820491461885e-07, 0.0, 0.0, 0.0, 2.6030820491461885e-07, 0.0, 0.0, 0.0, 0.0)",0.00918087901018,-0.00476219972949,0.00835424370265,"(2.5e-05, 0.0, 0.0, 0.0, 2.5e-05, 0.0, 0.0, 0.0, 2.5e-05)",0.0426179437245,-0.010811877878,9.78810311714,"(2.5e-05, 0.0, 0.0, 0.0, 2.5e-05, 0.0, 0.0, 0.0, 2.5e-05)"
1970/01/01/01:00:05.611000,437,5,610000000,base,-0.000598677961168,-0.002476119976,0.00594793577625,0.999979066018,"(2.6030820491461885e-07, 0.0, 0.0, 0.0, 2.6030820491461885e-07, 0.0, 0.0, 0.0, 0.0)",0.00135016263853,0.000180489078539,0.00644873864127,"(2.5e-05, 0.0, 0.0, 0.0, 2.5e-05, 0.0, 0.0, 0.0, 2.5e-05)",0.0497070588043,-0.00837828512269,9.79963614013,"(2.5e-05, 0.0, 0.0, 0.0, 2.5e-05, 0.0, 0.0, 0.0, 2.5e-05)"
1970/01/01/01:00:05.620000,438,5,620000000,base,-0.000598685386893,-0.00247614550472,0.00594793884943,0.999979065932,"(2.6030820491461885e-07, 0.0, 0.0, 0.0, 2.6030820491461885e-07, 0.0, 0.0, 0.0, 0.0)",0.0145322557091,0.000530503164522,0.000594182348842,"(2.5e-05, 0.0, 0.0, 0.0, 2.5e-05, 0.0, 0.0, 0.0, 2.5e-05)",0.0382003957539,-0.0148139574291,9.79133905231,"(2.5e-05, 0.0, 0.0, 0.0, 2.5e-05, 0.0, 0.0, 0.0, 2.5e-05)"
1970/01/01/01:00:05.630000,439,5,630000000,base,-0.00059868616005,-0.00247604016754,0.00594794198185,0.999979066174,"(2.6030820491461885e-07, 0.0, 0.0, 0.0, 2.6030820491461885e-07, 0.0, 0.0, 0.0, 0.0)",0.00404173039588,-0.00288944690968,0.00309257814239,"(2.5e-05, 0.0, 0.0, 0.0, 2.5e-05, 0.0, 0.0, 0.0, 2.5e-05)",0.0551846367526,-0.0101414354231,9.78621155225,"(2.5e-05, 0.0, 0.0, 0.0, 2.5e-05, 0.0, 0.0, 0.0, 2.5e-05)"
1970/01/01/01:00:05.640000,440,5,640000000,base,-0.00059870510385,-0.00247605237941,0.00594794507796,0.999979066114,"(2.6030820491461885e-07, 0.0, 0.0, 0.0, 2.6030820491461885e-07, 0.0, 0.0, 0.0, 0.0)",0.0097668237875,-0.00552607515252,-0.00166968080592,"(2.5e-05, 0.0, 0.0, 0.0, 2.5e-05, 0.0, 0.0, 0.0, 2.5e-05)",0.0471278183218,-0.0111004267989,9.799753032,"(2.5e-05, 0.0, 0.0, 0.0, 2.5e-05, 0.0, 0.0, 0.0, 2.5e-05)"
1970/01/01/01:00:05.650000,441,5,650000000,base,-0.000598715671489,-0.00247608920211,0.00594794814489,0.999979065998,"(2.6030820491461885e-07, 0.0, 0.0, 0.0, 2.6030820491461885e-07, 0.0, 0.0, 0.0, 0.0)",0.00515697797438,-0.00817974555475,0.00738975062933,"(2.5e-05, 0.0, 0.0, 0.0, 2.5e-05, 0.0, 0.0, 0.0, 2.5e-05)",0.0448354959479,-0.00821212240874,9.7961918277,"(2.5e-05, 0.0, 0.0, 0.0, 2.5e-05, 0.0, 0.0, 0.0, 2.5e-05)"
1970/01/01/01:00:05.660000,442,5,660000000,base,-0.000598660109095,-0.00247613482654,0.00594795109564,0.999979065901,"(2.6030820491461885e-07, 0.0, 0.0, 0.0, 2.6030820491461885e-07, 0.0, 0.0, 0.0, 0.0)",0.00681712320247,-0.00646326721099,0.00155846345367,"(2.5e-05, 0.0, 0.0, 0.0, 2.5e-05, 0.0, 0.0, 0.0, 2.5e-05)",0.0504562895418,-0.0120887866855,9.80259404584,"(2.5e-05, 0.0, 0.0, 0.0, 2.5e-05, 0.0, 0.0, 0.0, 2.5e-05)"
1970/01/01/01:00:05.670000,443,5,670000000,base,-0.000598741136516,-0.0024761359606,0.00594795429549,0.999979065831,"(2.6030820491461885e-07, 0.0, 0.0, 0.0, 2.6030820491461885e-07, 0.0, 0.0, 0.0, 0.0)",0.00880768795151,0.00155915676645,-0.00580920197409,"(2.5e-05, 0.0, 0.0, 0.0, 2.5e-05, 0.0, 0.0, 0.0, 2.5e-05)",0.0453936076649,-0.00624516689187,9.79535390886,"(2.5e-05, 0.0, 0.0, 0.0, 2.5e-05, 0.0, 0.0, 0.0, 2.5e-05)"
1970/01/01/01:00:05.680000,444,5,680000000,base,-0.000598875486131,-0.00247611627079,0.00594795759343,0.999979065779,"(2.6030820491461885e-07, 0.0, 0.0, 0.0, 2.6030820491461885e-07, 0.0, 0.0, 0.0, 0.0)",0.00139935198572,0.00197051722708,0.00427680690968,"(2.5e-05, 0.0, 0.0, 0.0, 2.5e-05, 0.0, 0.0, 0.0, 2.5e-05)",0.0473687256168,-0.016939812051,9.7986801044,"(2.5e-05, 0.0, 0.0, 0.0, 2.5e-05, 0.0, 0.0, 0.0, 2.5e-05)"
1970/01/01/01:00:05.690000,445,5,690000000,base,-0.000598917571405,-0.00247617689802,0.00594796069251,0.999979065586,"(2.6030820491461885e-07, 0.0, 0.0, 0.0, 2.6030820491461885e-07, 0.0, 0.0, 0.0, 0.0)",0.00494313947299,0.000686455095812,0.00351546914708,"(2.5e-05, 0.0, 0.0, 0.0, 2.5e-05, 0.0, 0.0, 0.0, 2.5e-05)",0.049368009688,-0.0157229652165,9.79983060645,"(2.5e-05, 0.0, 0.0, 0.0, 2.5e-05, 0.0, 0.0, 0.0, 2.5e-05)"
1970/01/01/01:00:05.700000,446,5,700000000,base,-0.000598968954592,-0.00247634596151,0.00594796374557,0.999979065118,"(2.6030820491461885e-07, 0.0, 0.0, 0.0, 2.6030820491461885e-07, 0.0, 0.0, 0.0, 0.0)",0.00392739989746,-0.0158171543773,0.00444420955475,"(2.5e-05, 0.0, 0.0, 0.0, 2.5e-05, 0.0, 0.0, 0.0, 2.5e-05)",0.0436242334468,-0.0058377673376,9.79188497328,"(2.5e-05, 0.0, 0.0, 0.0, 2.5e-05, 0.0, 0.0, 0.0, 2.5e-05)"
1970/01/01/01:00:05.710000,447,5,710000000,base,-0.000598877350372,-0.00247640780508,0.00594796661887,0.999979065003,"(2.6030820491461885e-07, 0.0, 0.0, 0.0, 2.6030820491461885e-07, 0.0, 0.0, 0.0, 0.0)",0.00867289251811,-0.0109014683887,0.0152621209512,"(2.5e-05, 0.0, 0.0, 0.0, 2.5e-05, 0.0, 0.0, 0.0, 2.5e-05)",0.0508394426023,-0.00939585120039,9.79253440896,"(2.5e-05, 0.0, 0.0, 0.0, 2.5e-05, 0.0, 0.0, 0.0, 2.5e-05)"
1970/01/01/01:00:05.720000,448,5,720000000,base,-0.000598856772522,-0.00247643445363,0.00594796962752,0.999979064931,"(2.6030820491461885e-07, 0.0, 0.0, 0.0, 2.6030820491461885e-07, 0.0, 0.0, 0.0, 0.0)",0.0140927607554,-0.00206362148558,0.00129442911691,"(2.5e-05, 0.0, 0.0, 0.0, 2.5e-05, 0.0, 0.0, 0.0, 2.5e-05)",0.0444536343275,-0.0128538105173,9.79373635231,"(2.5e-05, 0.0, 0.0, 0.0, 2.5e-05, 0.0, 0.0, 0.0, 2.5e-05)"
1970/01/01/01:00:05.737000,449,5,730000000,base,-0.000598856035247,-0.00247641748561,0.0059479726913,0.999979064955,"(2.6030820491461885e-07, 0.0, 0.0, 0.0, 2.6030820491461885e-07, 0.0, 0.0, 0.0, 0.0)",0.00697982095464,-0.00398901365434,0.00675186985886,"(2.5e-05, 0.0, 0.0, 0.0, 2.5e-05, 0.0, 0.0, 0.0, 2.5e-05)",0.0562526054182,-0.0156740746738,9.79733533932,"(2.5e-05, 0.0, 0.0, 0.0, 2.5e-05, 0.0, 0.0, 0.0, 2.5e-05)"
1970/01/01/01:00:05.739000,450,5,740000000,base,-0.000598840840083,-0.00247640395283,0.00594797572747,0.99997906498,"(2.6030820491461885e-07, 0.0, 0.0, 0.0, 2.6030820491461885e-07, 0.0, 0.0, 0.0, 0.0)",0.00623890265478,0.00130477366021,0.000733421472235,"(2.5e-05, 0.0, 0.0, 0.0, 2.5e-05, 0.0, 0.0, 0.0, 2.5e-05)",0.0439495514089,-0.0132606049779,9.792186724,"(2.5e-05, 0.0, 0.0, 0.0, 2.5e-05, 0.0, 0.0, 0.0, 2.5e-05)"
1970/01/01/01:00:05.749000,451,5,750000000,base,-0.000598837020396,-0.00247662492331,0.00594797865165,0.999979064417,"(2.6030820491461885e-07, 0.0, 0.0, 0.0, 2.6030820491461885e-07, 0.0, 0.0, 0.0, 0.0)",0.00772005529209,-0.00319006185546,-0.0011671171217,"(2.5e-05, 0.0, 0.0, 0.0, 2.5e-05, 0.0, 0.0, 0.0, 2.5e-05)",0.0524608594887,-0.0111529976694,9.79627088708,"(2.5e-05, 0.0, 0.0, 0.0, 2.5e-05, 0.0, 0.0, 0.0, 2.5e-05)"
1970/01/01/01:00:05.760000,452,5,760000000,base,-0.000598916809172,-0.00247665833357,0.00594798181593,0.999979064268,"(2.6030820491461885e-07, 0.0, 0.0, 0.0, 2.6030820491461885e-07, 0.0, 0.0, 0.0, 0.0)",0.00649500689746,-0.00554243455366,0.000875943147642,"(2.5e-05, 0.0, 0.0, 0.0, 2.5e-05, 0.0, 0.0, 0.0, 2.5e-05)",0.0508692320737,-0.0119711724006,9.79460221842,"(2.5e-05, 0.0, 0.0, 0.0, 2.5e-05, 0.0, 0.0, 0.0, 2.5e-05)"
1970/01/01/01:00:05.770000,453,5,770000000,base,-0.000598931243565,-0.00247679986578,0.00594798481058,0.999979063891,"(2.6030820491461885e-07, 0.0, 0.0, 0.0, 2.6030820491461885e-07, 0.0, 0.0, 0.0, 0.0)",0.00260997730201,-0.00570495007415,0.00388603346111,"(2.5e-05, 0.0, 0.0, 0.0, 2.5e-05, 0.0, 0.0, 0.0, 2.5e-05)",0.0413747834006,-0.0164916505327,9.79184964983,"(2.5e-05, 0.0, 0.0, 0.0, 2.5e-05, 0.0, 0.0, 0.0, 2.5e-05)"
1970/01/01/01:00:05.780000,454,5,780000000,base,-0.000598897989263,-0.00247690327272,0.00594798774539,0.999979063637,"(2.6030820491461885e-07, 0.0, 0.0, 0.0, 2.6030820491461885e-07, 0.0, 0.0, 0.0, 0.0)",-0.00159522414791,-0.0134977573906,-0.00255388844916,"(2.5e-05, 0.0, 0.0, 0.0, 2.5e-05, 0.0, 0.0, 0.0, 2.5e-05)",0.0460426198482,-0.00298357165155,9.80034744839,"(2.5e-05, 0.0, 0.0, 0.0, 2.5e-05, 0.0, 0.0, 0.0, 2.5e-05)"
1970/01/01/01:00:05.790000,455,5,790000000,base,-0.000598848977485,-0.00247694298469,0.00594799068736,0.999979063551,"(2.6030820491461885e-07, 0.0, 0.0, 0.0, 2.6030820491461885e-07, 0.0, 0.0, 0.0, 0.0)",0.00703770779027,-0.00334012030397,0.00102752103458,"(2.5e-05, 0.0, 0.0, 0.0, 2.5e-05, 0.0, 0.0, 0.0, 2.5e-05)",0.0415744790895,-0.0156395001091,9.78960787217,"(2.5e-05, 0.0, 0.0, 0.0, 2.5e-05, 0.0, 0.0, 0.0, 2.5e-05)"
1970/01/01/01:00:05.800000,456,5,800000000,base,-0.000598817030515,-0.00247710960703,0.005947993586,0.99997906314,"(2.6030820491461885e-07, 0.0, 0.0, 0.0, 2.6030820491461885e-07, 0.0, 0.0, 0.0, 0.0)",0.0116648253359,-0.00598188811664,0.00588932344409,"(2.5e-05, 0.0, 0.0, 0.0, 2.5e-05, 0.0, 0.0, 0.0, 2.5e-05)",0.0475106451591,-0.0134339213639,9.79955006196,"(2.5e-05, 0.0, 0.0, 0.0, 2.5e-05, 0.0, 0.0, 0.0, 2.5e-05)"
1970/01/01/01:00:05.810000,457,5,810000000,base,-0.00059882350678,-0.0024772445474,0.00594799656402,0.999979062784,"(2.6030820491461885e-07, 0.0, 0.0, 0.0, 2.6030820491461885e-07, 0.0, 0.0, 0.0, 0.0)",0.00533395856183,-0.00249515068109,0.00437726412699,"(2.5e-05, 0.0, 0.0, 0.0, 2.5e-05, 0.0, 0.0, 0.0, 2.5e-05)",0.0450133783762,-0.0125500211376,9.80413120487,"(2.5e-05, 0.0, 0.0, 0.0, 2.5e-05, 0.0, 0.0, 0.0, 2.5e-05)"
1970/01/01/01:00:05.820000,458,5,820000000,base,-0.00059887657439,-0.00247732757754,0.00594799964612,0.999979062528,"(2.6030820491461885e-07, 0.0, 0.0, 0.0, 2.6030820491461885e-07, 0.0, 0.0, 0.0, 0.0)",0.00778229283643,-0.00675735061577,0.00441890344893,"(2.5e-05, 0.0, 0.0, 0.0, 2.5e-05, 0.0, 0.0, 0.0, 2.5e-05)",0.0503858445613,-0.0122376442914,9.79661313825,"(2.5e-05, 0.0, 0.0, 0.0, 2.5e-05, 0.0, 0.0, 0.0, 2.5e-05)"
1970/01/01/01:00:05.830000,459,5,830000000,base,-0.000598832431993,-0.00247734941662,0.00594800259893,0.999979062483,"(2.6030820491461885e-07, 0.0, 0.0, 0.0, 2.6030820491461885e-07, 0.0, 0.0, 0.0, 0.0)",-0.00554389728073,0.00477800067292,0.00615767247376,"(2.5e-05, 0.0, 0.0, 0.0, 2.5e-05, 0.0, 0.0, 0.0, 2.5e-05)",0.0409127466744,-0.0104705536804,9.79555550585,"(2.5e-05, 0.0, 0.0, 0.0, 2.5e-05, 0.0, 0.0, 0.0, 2.5e-05)"
1970/01/01/01:00:05.843000,460,5,840000000,base,-0.000598879087348,-0.00247743476414,0.00594800566559,0.999979062226,"(2.6030820491461885e-07, 0.0, 0.0, 0.0, 2.6030820491461885e-07, 0.0, 0.0, 0.0, 0.0)",0.00972133457433,-0.00903778309162,-0.0026110763902,"(2.5e-05, 0.0, 0.0, 0.0, 2.5e-05, 0.0, 0.0, 0.0, 2.5e-05)",0.0443872565057,-0.00210258839135,9.79054964912,"(2.5e-05, 0.0, 0.0, 0.0, 2.5e-05, 0.0, 0.0, 0.0, 2.5e-05)"
1970/01/01/01:00:05.849000,461,5,850000000,base,-0.000598920005302,-0.00247743355427,0.00594800876863,0.999979062186,"(2.6030820491461885e-07, 0.0, 0.0, 0.0, 2.6030820491461885e-07, 0.0, 0.0, 0.0, 0.0)",0.0123701775077,0.00227019490333,0.00817610466014,"(2.5e-05, 0.0, 0.0, 0.0, 2.5e-05, 0.0, 0.0, 0.0, 2.5e-05)",0.0414052092737,-0.00275044439557,9.80304329891,"(2.5e-05, 0.0, 0.0, 0.0, 2.5e-05, 0.0, 0.0, 0.0, 2.5e-05)"
1970/01/01/01:00:05.859000,462,5,860000000,base,-0.000598923323738,-0.00247745023072,0.0059480117977,0.999979062124,"(2.6030820491461885e-07, 0.0, 0.0, 0.0, 2.6030820491461885e-07, 0.0, 0.0, 0.0, 0.0)",0.00475408055826,0.00269491947117,0.00090068143036,"(2.5e-05, 0.0, 0.0, 0.0, 2.5e-05, 0.0, 0.0, 0.0, 2.5e-05)",0.0531286259304,-0.0143716963125,9.79845626799,"(2.5e-05, 0.0, 0.0, 0.0, 2.5e-05, 0.0, 0.0, 0.0, 2.5e-05)"
1970/01/01/01:00:05.870000,463,5,870000000,base,-0.000598952611137,-0.00247746644996,0.00594801486833,0.999979062048,"(2.6030820491461885e-07, 0.0, 0.0, 0.0, 2.6030820491461885e-07, 0.0, 0.0, 0.0, 0.0)",0.00538910409673,-0.010061130806,-0.00202741344361,"(2.5e-05, 0.0, 0.0, 0.0, 2.5e-05, 0.0, 0.0, 0.0, 2.5e-05)",0.0481164180831,-0.01093177352,9.79263668747,"(2.5e-05, 0.0, 0.0, 0.0, 2.5e-05, 0.0, 0.0, 0.0, 2.5e-05)"
1970/01/01/01:00:05.880000,464,5,880000000,base,-0.000598952044338,-0.00247751100978,0.00594801787207,0.99997906192,"(2.6030820491461885e-07, 0.0, 0.0, 0.0, 2.6030820491461885e-07, 0.0, 0.0, 0.0, 0.0)",0.00742482825303,-0.00376596624707,0.00156804177823,"(2.5e-05, 0.0, 0.0, 0.0, 2.5e-05, 0.0, 0.0, 0.0, 2.5e-05)",0.0374185532516,-0.0150331326466,9.79645721623,"(2.5e-05, 0.0, 0.0, 0.0, 2.5e-05, 0.0, 0.0, 0.0, 2.5e-05)"
1970/01/01/01:00:05.890000,465,5,890000000,base,-0.00059899851996,-0.00247742507913,0.00594802102392,0.999979062087,"(2.6030820491461885e-07, 0.0, 0.0, 0.0, 2.6030820491461885e-07, 0.0, 0.0, 0.0, 0.0)",0.00958730644532,-0.0100563941516,0.00790103932152,"(2.5e-05, 0.0, 0.0, 0.0, 2.5e-05, 0.0, 0.0, 0.0, 2.5e-05)",0.0532835717153,-0.0177893250115,9.78389699735,"(2.5e-05, 0.0, 0.0, 0.0, 2.5e-05, 0.0, 0.0, 0.0, 2.5e-05)"
1970/01/01/01:00:05.900000,466,5,900000000,base,-0.000599045404772,-0.00247756778659,0.0059480240488,0.999979061687,"(2.6030820491461885e-07, 0.0, 0.0, 0.0, 2.6030820491461885e-07, 0.0, 0.0, 0.0, 0.0)",0.00391272172897,0.00188307362334,0.0101628030934,"(2.5e-05, 0.0, 0.0, 0.0, 2.5e-05, 0.0, 0.0, 0.0, 2.5e-05)",0.0453333337921,-0.0133570543639,9.79418244662,"(2.5e-05, 0.0, 0.0, 0.0, 2.5e-05, 0.0, 0.0, 0.0, 2.5e-05)"
1970/01/01/01:00:05.910000,467,5,910000000,base,-0.000599043215174,-0.0024776832151,0.00594802700553,0.999979061385,"(2.6030820491461885e-07, 0.0, 0.0, 0.0, 2.6030820491461885e-07, 0.0, 0.0, 0.0, 0.0)",-1.79262551343e-05,0.00756043770117,-0.00168361417991,"(2.5e-05, 0.0, 0.0, 0.0, 2.5e-05, 0.0, 0.0, 0.0, 2.5e-05)",0.0409952521602,-0.0162769870134,9.79988023188,"(2.5e-05, 0.0, 0.0, 0.0, 2.5e-05, 0.0, 0.0, 0.0, 2.5e-05)"
1970/01/01/01:00:05.919000,468,5,920000000,base,-0.00059909173631,-0.00247775069678,0.00594803007101,0.99997906117,"(2.6030820491461885e-07, 0.0, 0.0, 0.0, 2.6030820491461885e-07, 0.0, 0.0, 0.0, 0.0)",0.00331347062394,-0.000716415846392,-0.0048818668312,"(2.5e-05, 0.0, 0.0, 0.0, 2.5e-05, 0.0, 0.0, 0.0, 2.5e-05)",0.0519228942452,-0.0177793208438,9.79374384692,"(2.5e-05, 0.0, 0.0, 0.0, 2.5e-05, 0.0, 0.0, 0.0, 2.5e-05)"
1970/01/01/01:00:05.930000,469,5,930000000,base,-0.00059915432024,-0.00247783977417,0.00594803314617,0.999979060894,"(2.6030820491461885e-07, 0.0, 0.0, 0.0, 2.6030820491461885e-07, 0.0, 0.0, 0.0, 0.0)",0.00251159465515,-0.00590678777915,0.000310056454291,"(2.5e-05, 0.0, 0.0, 0.0, 2.5e-05, 0.0, 0.0, 0.0, 2.5e-05)",0.041117129839,-0.0141521167699,9.79862604092,"(2.5e-05, 0.0, 0.0, 0.0, 2.5e-05, 0.0, 0.0, 0.0, 2.5e-05)"
1970/01/01/01:00:05.940000,470,5,940000000,base,-0.000599190626753,-0.00247791467454,0.00594803618378,0.999979060668,"(2.6030820491461885e-07, 0.0, 0.0, 0.0, 2.6030820491461885e-07, 0.0, 0.0, 0.0, 0.0)",0.00751556202253,-0.00268754418707,0.00118199220719,"(2.5e-05, 0.0, 0.0, 0.0, 2.5e-05, 0.0, 0.0, 0.0, 2.5e-05)",0.0561847999927,-0.00990239505859,9.79418453438,"(2.5e-05, 0.0, 0.0, 0.0, 2.5e-05, 0.0, 0.0, 0.0, 2.5e-05)"
1970/01/01/01:00:05.950000,471,5,950000000,base,-0.000599093692197,-0.00247802010691,0.00594803898175,0.999979060448,"(2.6030820491461885e-07, 0.0, 0.0, 0.0, 2.6030820491461885e-07, 0.0, 0.0, 0.0, 0.0)",0.00784419601233,-0.00673530567657,0.00732081196819,"(2.5e-05, 0.0, 0.0, 0.0, 2.5e-05, 0.0, 0.0, 0.0, 2.5e-05)",0.062303238673,-0.0129195598149,9.79945203832,"(2.5e-05, 0.0, 0.0, 0.0, 2.5e-05, 0.0, 0.0, 0.0, 2.5e-05)"
1970/01/01/01:00:05.960000,472,5,960000000,base,-0.000599143255837,-0.00247801405667,0.00594804208239,0.999979060415,"(2.6030820491461885e-07, 0.0, 0.0, 0.0, 2.6030820491461885e-07, 0.0, 0.0, 0.0, 0.0)",0.00166361373769,-0.012410759522,-0.00470803424395,"(2.5e-05, 0.0, 0.0, 0.0, 2.5e-05, 0.0, 0.0, 0.0, 2.5e-05)",0.0452108779131,-0.00989143494264,9.79120760897,"(2.5e-05, 0.0, 0.0, 0.0, 2.5e-05, 0.0, 0.0, 0.0, 2.5e-05)"
1970/01/01/01:00:05.973000,473,5,970000000,base,-0.000599098291656,-0.00247816832415,0.00594804493613,0.999979060043,"(2.6030820491461885e-07, 0.0, 0.0, 0.0, 2.6030820491461885e-07, 0.0, 0.0, 0.0, 0.0)",0.00905225836187,-0.00244319352807,0.0119496547662,"(2.5e-05, 0.0, 0.0, 0.0, 2.5e-05, 0.0, 0.0, 0.0, 2.5e-05)",0.0481788227578,-0.00593162909854,9.79789456004,"(2.5e-05, 0.0, 0.0, 0.0, 2.5e-05, 0.0, 0.0, 0.0, 2.5e-05)"
1970/01/01/01:00:05.980000,474,5,980000000,base,-0.000599072370477,-0.00247816643541,0.0059480479057,0.999979060046,"(2.6030820491461885e-07, 0.0, 0.0, 0.0, 2.6030820491461885e-07, 0.0, 0.0, 0.0, 0.0)",0.00719799707986,-0.00451479328716,-0.00319862933656,"(2.5e-05, 0.0, 0.0, 0.0, 2.5e-05, 0.0, 0.0, 0.0, 2.5e-05)",0.0500729458864,-0.0124740962906,9.80145658967,"(2.5e-05, 0.0, 0.0, 0.0, 2.5e-05, 0.0, 0.0, 0.0, 2.5e-05)"
1970/01/01/01:00:05.990000,475,5,990000000,base,-0.00059906102434,-0.00247823341179,0.00594805085975,0.999979059869,"(2.6030820491461885e-07, 0.0, 0.0, 0.0, 2.6030820491461885e-07, 0.0, 0.0, 0.0, 0.0)",-0.000384884380663,-0.000139748358586,0.00449238511008,"(2.5e-05, 0.0, 0.0, 0.0, 2.5e-05, 0.0, 0.0, 0.0, 2.5e-05)",0.0509167786215,-0.0164541191249,9.79459551539,"(2.5e-05, 0.0, 0.0, 0.0, 2.5e-05, 0.0, 0.0, 0.0, 2.5e-05)"
1970/01/01/01:00:06.000000,476,6,0,base,-0.000599092837917,-0.00247833954342,0.00594805386209,0.999979059569,"(2.6030820491461885e-07, 0.0, 0.0, 0.0, 2.6030820491461885e-07, 0.0, 0.0, 0.0, 0.0)",0.00603387253989,-0.00629341358653,0.00182365529354,"(2.5e-05, 0.0, 0.0, 0.0, 2.5e-05, 0.0, 0.0, 0.0, 2.5e-05)",0.0460218245402,-0.00623138357245,9.7996033438,"(2.5e-05, 0.0, 0.0, 0.0, 2.5e-05, 0.0, 0.0, 0.0, 2.5e-05)"
1970/01/01/01:00:06.012000,477,6,10000000,base,-0.000599183378226,-0.00247831509843,0.00594805703203,0.999979059556,"(2.6030820491461885e-07, 0.0, 0.0, 0.0, 2.6030820491461885e-07, 0.0, 0.0, 0.0, 0.0)",0.0045495760855,-0.00462307488711,-0.00444289166433,"(2.5e-05, 0.0, 0.0, 0.0, 2.5e-05, 0.0, 0.0, 0.0, 2.5e-05)",0.0533738943069,-0.0171936115665,9.8015301937,"(2.5e-05, 0.0, 0.0, 0.0, 2.5e-05, 0.0, 0.0, 0.0, 2.5e-05)"
1970/01/01/01:00:06.020000,478,6,20000000,base,-0.000599274520116,-0.00247850886026,0.00594806008102,0.999979059003,"(2.6030820491461885e-07, 0.0, 0.0, 0.0, 2.6030820491461885e-07, 0.0, 0.0, 0.0, 0.0)",-0.00531740232422,-0.00459563986588,0.0141762273698,"(2.5e-05, 0.0, 0.0, 0.0, 2.5e-05, 0.0, 0.0, 0.0, 2.5e-05)",0.0480501388793,-0.0142747800687,9.80303868392,"(2.5e-05, 0.0, 0.0, 0.0, 2.5e-05, 0.0, 0.0, 0.0, 2.5e-05)"
1970/01/01/01:00:06.030000,479,6,30000000,base,-0.000599213224412,-0.00247844741737,0.00594806301584,0.999979059175,"(2.6030820491461885e-07, 0.0, 0.0, 0.0, 2.6030820491461885e-07, 0.0, 0.0, 0.0, 0.0)",0.00136907676666,-0.00271829052063,0.0102208884677,"(2.5e-05, 0.0, 0.0, 0.0, 2.5e-05, 0.0, 0.0, 0.0, 2.5e-05)",0.0489812433343,-0.0101050875634,9.78953431992,"(2.5e-05, 0.0, 0.0, 0.0, 2.5e-05, 0.0, 0.0, 0.0, 2.5e-05)"
1970/01/01/01:00:06.040000,480,6,40000000,base,-0.000599172410693,-0.00247844841368,0.00594806594848,0.999979059179,"(2.6030820491461885e-07, 0.0, 0.0, 0.0, 2.6030820491461885e-07, 0.0, 0.0, 0.0, 0.0)",0.0160606925024,-0.00928145675818,0.00991516281669,"(2.5e-05, 0.0, 0.0, 0.0, 2.5e-05, 0.0, 0.0, 0.0, 2.5e-05)",0.0470558394919,-0.0139867715625,9.7901614125,"(2.5e-05, 0.0, 0.0, 0.0, 2.5e-05, 0.0, 0.0, 0.0, 2.5e-05)"
1970/01/01/01:00:06.050000,481,6,50000000,base,-0.000599123166027,-0.0024785211202,0.00594806882586,0.999979059012,"(2.6030820491461885e-07, 0.0, 0.0, 0.0, 2.6030820491461885e-07, 0.0, 0.0, 0.0, 0.0)",0.0067424760563,0.00674747854882,0.00145186195545,"(2.5e-05, 0.0, 0.0, 0.0, 2.5e-05, 0.0, 0.0, 0.0, 2.5e-05)",0.0469507622833,-0.0151390224406,9.79334864113,"(2.5e-05, 0.0, 0.0, 0.0, 2.5e-05, 0.0, 0.0, 0.0, 2.5e-05)"
1970/01/01/01:00:06.060000,482,6,60000000,base,-0.000599138828245,-0.00247854032033,0.00594807183866,0.999979058937,"(2.6030820491461885e-07, 0.0, 0.0, 0.0, 2.6030820491461885e-07, 0.0, 0.0, 0.0, 0.0)",0.0127570268193,-0.00558847379587,-0.00113563129987,"(2.5e-05, 0.0, 0.0, 0.0, 2.5e-05, 0.0, 0.0, 0.0, 2.5e-05)",0.0452413510976,-0.0143538469104,9.79178086725,"(2.5e-05, 0.0, 0.0, 0.0, 2.5e-05, 0.0, 0.0, 0.0, 2.5e-05)"
1970/01/01/01:00:06.070000,483,6,70000000,base,-0.000599112757597,-0.00247850809495,0.00594807480875,0.999979059015,"(2.6030820491461885e-07, 0.0, 0.0, 0.0, 2.6030820491461885e-07, 0.0, 0.0, 0.0, 0.0)",0.00707674960786,-0.0122982262931,0.0041090239675,"(2.5e-05, 0.0, 0.0, 0.0, 2.5e-05, 0.0, 0.0, 0.0, 2.5e-05)",0.0438565076353,-0.0145889805563,9.7961974338,"(2.5e-05, 0.0, 0.0, 0.0, 2.5e-05, 0.0, 0.0, 0.0, 2.5e-05)"
1970/01/01/01:00:06.082000,484,6,80000000,base,-0.000599126157534,-0.00247849885911,0.00594807782993,0.999979059011,"(2.6030820491461885e-07, 0.0, 0.0, 0.0, 2.6030820491461885e-07, 0.0, 0.0, 0.0, 0.0)",0.0123675736318,-0.00987287148767,0.0125599778366,"(2.5e-05, 0.0, 0.0, 0.0, 2.5e-05, 0.0, 0.0, 0.0, 2.5e-05)",0.0397493556623,-0.0188362521585,9.79623625091,"(2.5e-05, 0.0, 0.0, 0.0, 2.5e-05, 0.0, 0.0, 0.0, 2.5e-05)"
1970/01/01/01:00:06.090000,485,6,90000000,base,-0.00059913589273,-0.00247859808476,0.00594808078351,0.999979058742,"(2.6030820491461885e-07, 0.0, 0.0, 0.0, 2.6030820491461885e-07, 0.0, 0.0, 0.0, 0.0)",0.00887769889025,-0.00526362215135,0.00418185745123,"(2.5e-05, 0.0, 0.0, 0.0, 2.5e-05, 0.0, 0.0, 0.0, 2.5e-05)",0.0544859042942,-0.014974713708,9.79867457449,"(2.5e-05, 0.0, 0.0, 0.0, 2.5e-05, 0.0, 0.0, 0.0, 2.5e-05)"
1970/01/01/01:00:06.100000,486,6,100000000,base,-0.000599101189917,-0.00247867591068,0.00594808367334,0.999979058553,"(2.6030820491461885e-07, 0.0, 0.0, 0.0, 2.6030820491461885e-07, 0.0, 0.0, 0.0, 0.0)",-0.00307465064621,-0.00720578593153,-0.000611366889403,"(2.5e-05, 0.0, 0.0, 0.0, 2.5e-05, 0.0, 0.0, 0.0, 2.5e-05)",0.0499896566205,-0.00455249655995,9.79885434786,"(2.5e-05, 0.0, 0.0, 0.0, 2.5e-05, 0.0, 0.0, 0.0, 2.5e-05)"
1970/01/01/01:00:06.109000,487,6,110000000,base,-0.000599023834054,-0.00247870360251,0.0059480865182,0.999979058514,"(2.6030820491461885e-07, 0.0, 0.0, 0.0, 2.6030820491461885e-07, 0.0, 0.0, 0.0, 0.0)",0.00936719532198,-0.00201133326644,0.00545625368779,"(2.5e-05, 0.0, 0.0, 0.0, 2.5e-05, 0.0, 0.0, 0.0, 2.5e-05)",0.042990728506,-0.00777638941697,9.79766172976,"(2.5e-05, 0.0, 0.0, 0.0, 2.5e-05, 0.0, 0.0, 0.0, 2.5e-05)"
1970/01/01/01:00:06.120000,488,6,120000000,base,-0.000598900108644,-0.00247874691332,0.0059480892757,0.999979058464,"(2.6030820491461885e-07, 0.0, 0.0, 0.0, 2.6030820491461885e-07, 0.0, 0.0, 0.0, 0.0)",0.00361591609354,-0.00501622907246,0.00382071648081,"(2.5e-05, 0.0, 0.0, 0.0, 2.5e-05, 0.0, 0.0, 0.0, 2.5e-05)",0.0481126315934,-0.0143055822764,9.79295879508,"(2.5e-05, 0.0, 0.0, 0.0, 2.5e-05, 0.0, 0.0, 0.0, 2.5e-05)"
1970/01/01/01:00:06.130000,489,6,130000000,base,-0.000598910959381,-0.00247880025415,0.00594809224932,0.999979058308,"(2.6030820491461885e-07, 0.0, 0.0, 0.0, 2.6030820491461885e-07, 0.0, 0.0, 0.0, 0.0)",0.00311119714763,-0.002227097577,-0.00196064718121,"(2.5e-05, 0.0, 0.0, 0.0, 2.5e-05, 0.0, 0.0, 0.0, 2.5e-05)",0.0441111130959,-0.00494510800869,9.80169968868,"(2.5e-05, 0.0, 0.0, 0.0, 2.5e-05, 0.0, 0.0, 0.0, 2.5e-05)"
1970/01/01/01:00:06.141000,490,6,140000000,base,-0.000598838829551,-0.00247885853696,0.00594809508068,0.999979058189,"(2.6030820491461885e-07, 0.0, 0.0, 0.0, 2.6030820491461885e-07, 0.0, 0.0, 0.0, 0.0)",0.00808730713434,-0.00120005758286,0.00435538543386,"(2.5e-05, 0.0, 0.0, 0.0, 2.5e-05, 0.0, 0.0, 0.0, 2.5e-05)",0.0478650988907,-0.00568213831115,9.79503010569,"(2.5e-05, 0.0, 0.0, 0.0, 2.5e-05, 0.0, 0.0, 0.0, 2.5e-05)"
1970/01/01/01:00:06.150000,491,6,150000000,base,-0.000598865983811,-0.00247893036125,0.00594809806764,0.999979057977,"(2.6030820491461885e-07, 0.0, 0.0, 0.0, 2.6030820491461885e-07, 0.0, 0.0, 0.0, 0.0)",0.0114414932952,-0.00615197637087,0.00416571445828,"(2.5e-05, 0.0, 0.0, 0.0, 2.5e-05, 0.0, 0.0, 0.0, 2.5e-05)",0.0610187305147,-0.00826801502054,9.79428640911,"(2.5e-05, 0.0, 0.0, 0.0, 2.5e-05, 0.0, 0.0, 0.0, 2.5e-05)"
1970/01/01/01:00:06.160000,492,6,160000000,base,-0.000598790179504,-0.00247901874879,0.00594810087276,0.999979057787,"(2.6030820491461885e-07, 0.0, 0.0, 0.0, 2.6030820491461885e-07, 0.0, 0.0, 0.0, 0.0)",0.00251696650414,0.00104053066605,0.00454400893811,"(2.5e-05, 0.0, 0.0, 0.0, 2.5e-05, 0.0, 0.0, 0.0, 2.5e-05)",0.0558290478713,-0.0110081724617,9.7899826922,"(2.5e-05, 0.0, 0.0, 0.0, 2.5e-05, 0.0, 0.0, 0.0, 2.5e-05)"
1970/01/01/01:00:06.170000,493,6,170000000,base,-0.000598782408045,-0.00247911661534,0.00594810378385,0.999979057532,"(2.6030820491461885e-07, 0.0, 0.0, 0.0, 2.6030820491461885e-07, 0.0, 0.0, 0.0, 0.0)",0.00327164319819,-0.00172805044056,0.00170422526726,"(2.5e-05, 0.0, 0.0, 0.0, 2.5e-05, 0.0, 0.0, 0.0, 2.5e-05)",0.0500972460993,-0.0181007600514,9.79740709718,"(2.5e-05, 0.0, 0.0, 0.0, 2.5e-05, 0.0, 0.0, 0.0, 2.5e-05)"
1970/01/01/01:00:06.180000,494,6,180000000,base,-0.000598752571311,-0.00247909505127,0.00594810672233,0.999979057585,"(2.6030820491461885e-07, 0.0, 0.0, 0.0, 2.6030820491461885e-07, 0.0, 0.0, 0.0, 0.0)",0.00598976329184,-0.00106053931385,-0.00834447273829,"(2.5e-05, 0.0, 0.0, 0.0, 2.5e-05, 0.0, 0.0, 0.0, 2.5e-05)",0.0489592985094,-0.00970569112316,9.79230954175,"(2.5e-05, 0.0, 0.0, 0.0, 2.5e-05, 0.0, 0.0, 0.0, 2.5e-05)"
1970/01/01/01:00:06.191000,495,6,190000000,base,-0.000598626732719,-0.0024790974749,0.00594810948641,0.999979057638,"(2.6030820491461885e-07, 0.0, 0.0, 0.0, 2.6030820491461885e-07, 0.0, 0.0, 0.0, 0.0)",0.0130472141671,0.00531033694999,-0.00463440165038,"(2.5e-05, 0.0, 0.0, 0.0, 2.5e-05, 0.0, 0.0, 0.0, 2.5e-05)",0.0388751419701,-0.0178800422943,9.80109528394,"(2.5e-05, 0.0, 0.0, 0.0, 2.5e-05, 0.0, 0.0, 0.0, 2.5e-05)"
1970/01/01/01:00:06.200000,496,6,200000000,base,-0.00059865841466,-0.00247912251027,0.00594811249783,0.999979057539,"(2.6030820491461885e-07, 0.0, 0.0, 0.0, 2.6030820491461885e-07, 0.0, 0.0, 0.0, 0.0)",-6.07902323376e-05,-0.00905039685804,-0.000268228542688,"(2.5e-05, 0.0, 0.0, 0.0, 2.5e-05, 0.0, 0.0, 0.0, 2.5e-05)",0.0424703285595,-0.0102021473522,9.79078015699,"(2.5e-05, 0.0, 0.0, 0.0, 2.5e-05, 0.0, 0.0, 0.0, 2.5e-05)"
1970/01/01/01:00:06.214000,497,6,210000000,base,-0.000598583142315,-0.0024793064149,0.00594811524233,0.999979057112,"(2.6030820491461885e-07, 0.0, 0.0, 0.0, 2.6030820491461885e-07, 0.0, 0.0, 0.0, 0.0)",0.00723787163456,-0.000811098456523,0.00643208805037,"(2.5e-05, 0.0, 0.0, 0.0, 2.5e-05, 0.0, 0.0, 0.0, 2.5e-05)",0.0495205973333,-0.0130391273068,9.80314413946,"(2.5e-05, 0.0, 0.0, 0.0, 2.5e-05, 0.0, 0.0, 0.0, 2.5e-05)"
1970/01/01/01:00:06.221000,498,6,220000000,base,-0.0005986466804,-0.00247940145309,0.00594811826455,0.999979056821,"(2.6030820491461885e-07, 0.0, 0.0, 0.0, 2.6030820491461885e-07, 0.0, 0.0, 0.0, 0.0)",-0.000806237836926,0.00142224195292,0.0129249202573,"(2.5e-05, 0.0, 0.0, 0.0, 2.5e-05, 0.0, 0.0, 0.0, 2.5e-05)",0.0487800131713,-0.0175406290881,9.79638761386,"(2.5e-05, 0.0, 0.0, 0.0, 2.5e-05, 0.0, 0.0, 0.0, 2.5e-05)"
1970/01/01/01:00:06.230000,499,6,230000000,base,-0.000598625940325,-0.00247958304222,0.00594812109735,0.999979056366,"(2.6030820491461885e-07, 0.0, 0.0, 0.0, 2.6030820491461885e-07, 0.0, 0.0, 0.0, 0.0)",-0.0010417744823,-0.00188962308786,-0.00543715783347,"(2.5e-05, 0.0, 0.0, 0.0, 2.5e-05, 0.0, 0.0, 0.0, 2.5e-05)",0.0489885134967,-0.0183541367403,9.80089652162,"(2.5e-05, 0.0, 0.0, 0.0, 2.5e-05, 0.0, 0.0, 0.0, 2.5e-05)"
1970/01/01/01:00:06.240000,500,6,240000000,base,-0.00059854862569,-0.00247972186833,0.00594812385797,0.999979056051,"(2.6030820491461885e-07, 0.0, 0.0, 0.0, 2.6030820491461885e-07, 0.0, 0.0, 0.0, 0.0)",0.000978510890056,0.0027238616312,0.00469695683329,"(2.5e-05, 0.0, 0.0, 0.0, 2.5e-05, 0.0, 0.0, 0.0, 2.5e-05)",0.0558498111677,-0.0189630067787,9.79562658415,"(2.5e-05, 0.0, 0.0, 0.0, 2.5e-05, 0.0, 0.0, 0.0, 2.5e-05)"
1970/01/01/01:00:06.253000,501,6,250000000,base,-0.000598454991915,-0.00247983454168,0.00594812660413,0.999979055812,"(2.6030820491461885e-07, 0.0, 0.0, 0.0, 2.6030820491461885e-07, 0.0, 0.0, 0.0, 0.0)",0.00650588025807,0.00302568617517,0.0133930642026,"(2.5e-05, 0.0, 0.0, 0.0, 2.5e-05, 0.0, 0.0, 0.0, 2.5e-05)",0.0481020743284,-0.0139528820071,9.79258784111,"(2.5e-05, 0.0, 0.0, 0.0, 2.5e-05, 0.0, 0.0, 0.0, 2.5e-05)"
1970/01/01/01:00:06.260000,502,6,260000000,base,-0.000598503339392,-0.00247987618835,0.00594812962349,0.999979055662,"(2.6030820491461885e-07, 0.0, 0.0, 0.0, 2.6030820491461885e-07, 0.0, 0.0, 0.0, 0.0)",0.00715572740149,-0.00537555400547,0.00832470752382,"(2.5e-05, 0.0, 0.0, 0.0, 2.5e-05, 0.0, 0.0, 0.0, 2.5e-05)",0.0470475421325,-0.0124675905884,9.80282975268,"(2.5e-05, 0.0, 0.0, 0.0, 2.5e-05, 0.0, 0.0, 0.0, 2.5e-05)"
1970/01/01/01:00:06.271000,503,6,270000000,base,-0.000598593804042,-0.00247992787455,0.00594813270551,0.999979055461,"(2.6030820491461885e-07, 0.0, 0.0, 0.0, 2.6030820491461885e-07, 0.0, 0.0, 0.0, 0.0)",0.0121846459226,-0.0054968637155,0.0120683882416,"(2.5e-05, 0.0, 0.0, 0.0, 2.5e-05, 0.0, 0.0, 0.0, 2.5e-05)",0.0470128859951,-0.0173991344528,9.80166026656,"(2.5e-05, 0.0, 0.0, 0.0, 2.5e-05, 0.0, 0.0, 0.0, 2.5e-05)"
1970/01/01/01:00:06.280000,504,6,280000000,base,-0.000598590507796,-0.00247993157146,0.00594813565648,0.999979055436,"(2.6030820491461885e-07, 0.0, 0.0, 0.0, 2.6030820491461885e-07, 0.0, 0.0, 0.0, 0.0)",0.00229162314665,0.00171265353647,0.00772283611564,"(2.5e-05, 0.0, 0.0, 0.0, 2.5e-05, 0.0, 0.0, 0.0, 2.5e-05)",0.0396665205317,-0.00257513717898,9.7958894538,"(2.5e-05, 0.0, 0.0, 0.0, 2.5e-05, 0.0, 0.0, 0.0, 2.5e-05)"
1970/01/01/01:00:06.290000,505,6,290000000,base,-0.000598657569233,-0.00248012690905,0.00594813861695,0.999979054894,"(2.6030820491461885e-07, 0.0, 0.0, 0.0, 2.6030820491461885e-07, 0.0, 0.0, 0.0, 0.0)",0.00162141159154,-0.00563565083802,0.00442904105969,"(2.5e-05, 0.0, 0.0, 0.0, 2.5e-05, 0.0, 0.0, 0.0, 2.5e-05)",0.0493833344424,-0.0151928003231,9.79259148405,"(2.5e-05, 0.0, 0.0, 0.0, 2.5e-05, 0.0, 0.0, 0.0, 2.5e-05)"
