time,.header.seq,.header.stamp.secs,.header.stamp.nsecs,.header.frame_id,.child_frame_id,.pose.pose.position.x,.pose.pose.position.y,.pose.pose.position.z,.pose.pose.orientation.x,.pose.pose.orientation.y,.pose.pose.orientation.z,.pose.pose.orientation.w,.pose.covariance,.twist.twist.linear.x,.twist.twist.linear.y,.twist.twist.linear.z,.twist.twist.angular.x,.twist.twist.angular.y,.twist.twist.angular.z,.twist.covariance
1970/01/01/01:00:04.886000,229,4,880000000,odom,base_footprint,0.0021827219014,8.25858811603e-06,-3.63513240193e-38,-2.86212815989e-29,3.07769632875e-30,0.00594591448738,0.999982322894,"(0.2617069770884881, -6.827435308357039e-15, 4.2690373680368796e-36, -4.134015151593346e-42, -4.2581393485635854e-42, 1.799822237025531e-18, -6.827467287327541e-15, 0.2617069770893135, -2.557811732890061e-34, 4.2873418133496915e-40, 4.355050338609877e-40, -1.8654630816835145e-16, 4.269037368036976e-36, -2.557811732890156e-34, 4.986225715940961e-07, 9.200474872445851e-21, 3.993224548977084e-18, -1.9209678105445912e-48, -4.1340022781276877e-42, 4.287328474453634e-40, 9.200474872445851e-21, 4.972676186271319e-07, -2.6782165454711244e-29, 4.397708707062268e-38, -2.6706222370097224e-42, 2.7102194161110417e-40, 3.993224548977084e-18, -2.656298405050709e-29, 4.972676186271319e-07, 3.6715868068222664e-39, 1.799822237025531e-18, -1.8654630816835143e-16, -4.293519843234434e-46, 4.397702858444547e-38, -3.646505691839972e-39, 9.999983333439577e-10)",-8.9122763529e-05,2.0374651745e-07,9.72832048752e-43,5.09403092773e-23,1.27465751252e-23,0.00423266764944,"(0.015374374268607436, -2.1443918762717694e-57, -8.118259092764346e-41, 2.947822391772519e-51, 1.272102699726934e-48, 4.988035578831804e-65, -2.1443918762717779e-57, 0.015374374268607436, 1.679155655639047e-38, -4.288318312198637e-49, -1.8608375962727105e-46, -7.622251796459672e-64, -8.118259092764348e-41, 1.6791556556390468e-38, 4.979423268161728e-07, 2.1119026992152573e-29, 9.165646512585124e-27, 2.6819743989189564e-44, 2.9478223917725167e-51, -4.288318312198636e-49, 2.1119026992152576e-29, 4.920599665389443e-07, 3.1293665666371186e-27, 5.85049336014449e-24, 1.2721026997269339e-48, -1.8608375962727113e-46, 9.165646512585122e-27, -3.1293665670936985e-27, 4.920599665389443e-07, 1.4625902446381324e-24, -4.129398609094888e-64, -5.9911519472196935e-64, 1.1258228709620559e-43, 5.850493360144491e-24, 1.462557165735044e-24, 2.2458684541006566e-05)"
1970/01/01/01:00:04.906000,230,4,900000000,odom,base_footprint,0.00218266468735,8.25934486592e-06,8.19862092004e-36,1.67417602403e-32,7.46824115179e-29,0.00594591421185,0.999982322896,"(0.2628268910619397, -6.827715410226447e-15, -3.1749441270052995e-34, -1.910575166424722e-41, 5.491244708277432e-42, 2.1283580684730275e-18, -6.827747812674649e-15, 0.2628268910627651, 2.2805612986753676e-36, 1.9729978664032103e-39, 5.166084572355534e-40, -2.1954089935541566e-16, -3.1749441270052973e-34, 2.2805612986752326e-36, 4.991708035498672e-07, 5.668347704470296e-21, 2.3875713647468326e-18, -8.057911340509286e-46, -1.282119763746252e-43, 1.581924285872998e-41, 5.668347704470295e-21, 4.983497633464825e-07, -1.6417007108445115e-29, 1.4271938936086226e-40, 5.4910221687097247e-42, 5.166314023884452e-40, 2.3875713647468322e-18, -1.622564268279347e-29, 4.983497633464825e-07, -1.470124605771172e-38, 2.1283580684730282e-18, -2.1954089935541566e-16, -8.095090074057317e-46, -1.9151847017297408e-38, -1.4700585152610628e-38, 9.999983333461586e-10)",-8.8293828223e-05,2.01851460844e-07,-2.02239626053e-40,3.50148153795e-28,6.67023612125e-26,0.006243800959,"(0.015374197573963582, -1.7922788552854177e-57, 2.0774233449777052e-38, -5.4342192414944166e-49, -2.2880358183192775e-46, -6.004884308939583e-63, -1.792278855285426e-57, 0.015374197573963582, -4.62407415761736e-40, 1.548889334049585e-50, 6.49224171009537e-48, -3.7713968475667265e-63, 2.077423344977706e-38, -4.62407415761736e-40, 4.98759274802253e-07, 1.3203758388348046e-29, 5.5595187677063235e-27, 1.6996077588731622e-43, -5.434219241494419e-49, 1.5488893340495852e-50, 1.3203758388348046e-29, 4.951437999912779e-07, -1.139400177608155e-34, 5.554944316110222e-32, -2.288035818319278e-46, 6.492241710095375e-48, 5.559518767706325e-27, 3.168714038787989e-27, 4.951437999912779e-07, -5.617109317907309e-29, -6.043359570608466e-63, -3.786615120917478e-63, 1.7089468611432525e-43, 5.888701813181803e-24, -5.617109349369007e-29, 2.2465504736590393e-05)"
1970/01/01/01:00:04.926000,231,4,920000000,odom,base_footprint,0.00218261139094,8.26012556172e-06,-1.38596098143e-38,2.40402421366e-29,7.27009412999e-30,0.00594545455024,0.999982325629,"(0.2639468288206464, -6.8278832680872744e-15, -1.120944471675547e-36, -2.070208534116111e-42, 5.0902784934515686e-42, 2.012530001970885e-18, -6.827916394486533e-15, 0.26394682882147186, 8.86337675873698e-35, 2.1413419882271596e-40, -5.277668070238111e-40, -2.08958809169887e-16, -1.1209444716755487e-36, 8.86337675873697e-35, 4.989647915227452e-07, 6.796980144836647e-21, 2.9512374099162076e-18, 1.239916334145916e-47, 8.146425339443257e-42, -8.465307809230335e-40, 6.79698014483665e-21, 4.979422937806553e-07, -1.937907405729053e-29, 2.7933305560110624e-38, 5.090277843672417e-42, -5.277667400315931e-40, 2.9512374099162084e-18, -1.9375442577108912e-29, 4.979422937806553e-07, -6.109182877377289e-39, 2.012530001970885e-18, -2.08958809169887e-16, 1.2362857361980964e-47, 4.016787176386712e-38, -6.109183084899801e-39, 9.999983333448759e-10)",-8.74441329926e-05,1.99908944283e-07,3.42034200352e-43,2.38217302354e-26,3.60722001092e-23,0.00668224215295,"(0.015370833599017975, -1.6974704458452439e-57, 9.589303058770399e-44, -4.8967156241670957e-54, -2.101438576174807e-51, -5.859110857371678e-65, -1.6974704458452518e-57, 0.015370833599017975, -5.801516142664288e-39, 1.4529137992505665e-49, 6.308140001541728e-47, -4.189433862846194e-64, 9.589303058770395e-44, -5.801516142664288e-39, 4.984519728417161e-07, 1.577373787819163e-29, 6.848510273663531e-27, -4.1491687587845994e-44, -4.8967156241670957e-54, 1.4529137992505667e-49, 1.5773737878191633e-29, 4.939735422675859e-07, 3.1537538973218156e-27, 1.1678358253642067e-28, -2.1014385761748077e-51, 6.308140001541728e-47, 6.848510273663531e-27, 1.2615014238009545e-26, 4.939735422675859e-07, -2.9370336501723094e-24, -5.9054151228913825e-65, -4.173718615198874e-64, -4.130502002515044e-44, 5.874184142030805e-24, -2.9370336501723094e-24, 2.2462335460255287e-05)"
1970/01/01/01:00:04.946000,232,4,940000000,odom,base_footprint,0.00218255190276,8.26080691259e-06,6.00175109352e-39,-2.44220906849e-29,-8.06457448228e-32,0.00594595612897,0.999982322647,"(0.265066718997143, -6.828253153556329e-15, -8.478150554109159e-37, -5.817405517349612e-44, -2.4251416116036756e-42, 1.9895822146132498e-18, -6.828286191589434e-15, 0.2650667189979685, 1.3860512156754577e-35, 6.045278455415271e-42, 2.542108290548611e-40, -2.0657450290873913e-16, -8.478150554107983e-37, 1.3860512156742424e-35, 4.993084292143547e-07, 4.535441292826428e-21, 1.951779417073721e-18, 2.770244686358982e-48, 9.911101867483763e-42, -1.029052699321321e-39, 4.535441292826426e-21, 4.986225273296627e-07, 3.741739265177426e-29, 3.391667524839044e-38, 5.257780817745694e-44, -3.047928781896888e-42, 1.951779417073721e-18, -6.301760927741765e-29, 4.986225273296627e-07, -9.980607612340525e-42, 1.98958221461325e-18, -2.0657450290873916e-16, -3.973285574511039e-46, 1.9570436072040658e-41, -8.48887488606047e-39, 9.999983333475293e-10)",-8.66312281944e-05,1.98050535555e-07,-1.75986614598e-43,-1.98771302653e-26,4.52897591734e-29,0.00210809081135,"(0.015374260211614001, -1.610126000297425e-57, 4.819459372099561e-41, -1.473927002395231e-51, -6.339936559758901e-49, -3.0038337568222696e-65, -1.610126000297434e-57, 0.015374260211614001, -9.05307560771848e-40, 2.2626980163624456e-50, 9.735323576310224e-48, -1.1058755819010046e-65, 4.819459372099561e-41, -9.053075607718475e-40, 4.989647769196439e-07, 1.0538405724968612e-29, 4.534180688587777e-27, -5.594129400870053e-46, -1.47392700239523e-51, 2.262698016362444e-50, 1.0538405724968605e-29, 4.959333658894778e-07, -6.357655746626377e-27, 1.1678848499832e-28, -6.3399365597589015e-49, 9.73532357631022e-48, 4.534180688587779e-27, -3.178827873359587e-27, 4.959333658894778e-07, -2.8982145720141594e-32, 1.0901797467688283e-64, 1.6785863230900083e-64, 8.294206403395255e-44, 5.796544485088207e-32, -2.922610310739101e-29, 2.2468195881427048e-05)"
1970/01/01/01:00:04.966000,233,4,960000000,odom,base_footprint,0.00218249323458,8.26147658296e-06,2.33325270446e-38,1.5693239085e-28,9.33296498173e-31,0.00594599530672,0.999982322414,"(0.26618661014712014, -6.828614995257466e-15, -3.036728618058152e-36, 1.6436644194165687e-41, 1.689128603484721e-42, 1.963204747751386e-18, -6.828647501775329e-15, 0.2661866101479457, 2.4072558410783195e-34, -1.7136790049825675e-39, -1.7416521888163168e-40, -2.046320908974275e-16, -3.036728618058153e-36, 2.407255841078315e-34, 4.993084292143547e-07, 4.384391044622021e-21, 1.9334264628717706e-18, 3.6181685408104576e-48, 1.643665601763163e-41, -1.7136802326518656e-39, 4.38439104462202e-21, 4.986225273296545e-07, -6.247150173320883e-29, 2.570364021498264e-38, 2.4684836786417776e-44, -6.810480903843634e-43, 1.9334264628717694e-18, 3.7956592067123335e-29, 4.986225273296545e-07, 6.00776297542957e-44, 1.963204747751386e-18, -2.0463209089742754e-16, 6.464600836743712e-48, 2.570363981746279e-38, -2.0531829776499397e-39, 9.99998333347529e-10)",-8.58151418897e-05,1.96184853478e-07,-5.75489113375e-43,3.43605049673e-22,4.44213326676e-35,0.00853566049792,"(0.015377460126436654, -1.5287559029817707e-57, 7.439118980423107e-47, -4.743765262712636e-57, -2.0675490252454448e-54, -2.9294112145006183e-67, -1.528755902981779e-57, 0.015377460126436654, -1.5713887932466398e-38, 3.795400583198967e-49, 1.6738629019177945e-46, -3.2572036827897515e-65, 7.439118980423105e-47, -1.5713887932466392e-38, 4.989647769196439e-07, 1.0184353998279269e-29, 4.491544924536709e-27, -8.708887490822706e-46, -4.743765262712635e-57, 3.7954005831989664e-49, 1.0184353998279268e-29, 4.959333658894794e-07, -6.3576558695258725e-27, -5.898794461509689e-24, -2.0675490252454443e-54, 1.6738629019177941e-46, 4.491544924536711e-27, 3.1788281189371326e-27, 4.959333658894794e-07, -9.183549615799121e-41, 1.0630786245094474e-66, -5.285819206154111e-64, -1.4227128611638294e-44, -5.898794461510841e-24, -1.4747278125723553e-24, 2.2468196487503106e-05)"
1970/01/01/01:00:04.985000,234,4,980000000,odom,base_footprint,0.00218245139935,8.26230028716e-06,-3.78266936542e-38,-2.7293123357e-29,1.23021257281e-29,0.00594605118147,0.999982322081,"(0.2673066302476241, -6.828618933922543e-15, 8.57899359260402e-37, -4.882218995443605e-43, 2.909689919931318e-42, 7.379143907186774e-19, -6.828650937849828e-15, 0.26730663024844964, -6.802532744244523e-35, 4.918134322271754e-41, -3.010375544119009e-40, -7.633254861250258e-17, 8.578993592603921e-37, -6.802532744244402e-35, 4.959348373451377e-07, 2.500801212094498e-20, 1.0907091698741296e-17, 1.2726554738511092e-47, -4.88223868894799e-43, 4.918154412138146e-41, 2.500801212094498e-20, 4.920625641778319e-07, -6.70785877954846e-29, -5.630624741057983e-38, 2.5921975470491767e-42, -2.687969456305708e-40, 1.0907091698741291e-17, -6.711760780721817e-29, 4.920625641778319e-07, -1.2300951929025262e-38, 7.379143907186773e-19, -7.633254861250258e-17, 9.032536755675156e-46, -5.630610319790623e-38, 1.582511667673692e-38, 9.99998333343792e-10)",-8.49065678061e-05,1.94107732011e-07,9.05369912619e-43,-3.82308734177e-26,1.74434962462e-23,0.00789907623903,"(0.015364186595502028, -1.450286436608822e-57, -4.3370734992244805e-45, 9.514175181176323e-56, 4.1493454517237674e-53, -3.103686684173019e-69, -1.45028643660883e-57, 0.015364186595502028, 4.1245262398260935e-39, -7.630005379255879e-50, -3.3482401284837865e-47, 1.7050893747557164e-64, -4.337073499224482e-45, 4.124526239826096e-39, 4.939755021739682e-07, 5.145614875769152e-29, 2.2441855953772602e-26, -1.3265494271487797e-43, 9.514175181176318e-56, -7.630005379255881e-50, 5.145614875769149e-29, 4.782401896308612e-07, 5.912110033110892e-27, -2.8395085655704294e-28, 4.1493454517237684e-53, -3.3482401284837885e-47, 2.2441855953772594e-26, -2.956055741063832e-27, 4.782401896308612e-07, -2.8419165876487208e-24, 9.90177728810205e-69, 7.049275164419325e-63, -2.8628400045961175e-43, -2.8395085655713276e-28, -2.8417747183059042e-24, 2.24499269306204e-05)"
1970/01/01/01:00:05.006000,235,5,0,odom,base_footprint,0.00218239355915,8.26291323269e-06,-2.80627785039e-36,-1.20601126494e-28,-1.7948961238e-29,0.00594604332713,0.999982322128,"(0.2684265184358787, -6.828968217455506e-15, 6.16160781441208e-35, 1.9462056576147463e-44, 1.7473990485677534e-43, 1.9366432928735242e-18, -6.829000818504603e-15, 0.26842651843670434, -2.3110285931217696e-34, -2.4710329308661178e-42, -2.1102510081054345e-40, -2.0053319059120302e-16, 6.161607814412065e-35, -2.311028593121642e-34, 4.993084292143547e-07, 4.476121733486287e-21, 1.8946994564802732e-18, 3.847892920420169e-46, 1.0614245863557732e-41, -1.0995350894758029e-39, 4.476121733486288e-21, 4.986225273296959e-07, 3.797980937376412e-29, 3.3888947883203357e-38, -8.465727018936526e-43, -1.0526927956949452e-40, 1.894699456480273e-18, -6.250630931184682e-29, 4.986225273296959e-07, 1.052246738466516e-38, 1.9366432928735246e-18, -2.0053319059120307e-16, 7.633643253390972e-46, -2.7253423308235086e-41, 2.1055268939464125e-38, 9.999983333475289e-10)",-8.40939244583e-05,1.92249920993e-07,6.9232941578e-41,-9.8241828792e-26,9.81094725357e-23,-0.00055009612665,"(0.015368246421839583, -1.2421154698736389e-57, -3.834477217512858e-39, 9.489244921877598e-50, 4.015060769521352e-47, -4.251206436893577e-64, -1.2421154698736468e-57, 0.015368246421839583, 1.5127369912754014e-38, -3.732064461136525e-49, -1.5791138044021135e-46, 2.4394762307499665e-63, -3.834477217512858e-39, 1.5127369912754014e-38, 4.989647769196439e-07, 1.0402653587230375e-29, 4.4015782778058215e-27, -6.778565540335201e-44, 9.489244921877595e-50, -3.732064461136526e-49, 1.040265358723038e-29, 4.959333658894629e-07, -3.1788279962558313e-27, 1.167877935272497e-28, 4.0150607695213518e-47, -1.5791138044021135e-46, 4.401578277805823e-27, -1.1166460931377654e-37, 4.959333658894629e-07, 1.4747568574557705e-24, -8.74342874319611e-64, 4.892826179842011e-63, -1.3428861419846887e-43, -2.802730803099722e-36, 2.9495137429622774e-24, 2.2468194598059064e-05)"
1970/01/01/01:00:05.025000,236,5,20000000,odom,base_footprint,0.00218233975618,8.26354830249e-06,-3.29008546251e-36,-8.66916389171e-29,-5.41295421587e-29,0.00594561024692,0.999982324703,"(0.269546429629899, -6.829216961910112e-15, 1.4989066296230754e-34, 9.223655597747509e-42, 1.9996244859016786e-42, 2.001168653383008e-18, -6.8292492467952696e-15, 0.26954642963072467, -5.797072495971566e-34, -9.55304447340986e-40, -6.711098910744855e-40, -2.0704472860779125e-16, 1.4989066296230746e-34, -5.797072495971566e-34, 4.991708035498672e-07, 5.28081039970739e-21, 2.2516714028101045e-18, 3.908260460930836e-46, 7.642280176305633e-43, -8.006919068674458e-41, 5.2808103997073896e-21, 4.983497633464364e-07, -1.4212120843931886e-29, 3.947034559697446e-38, 2.0118316550641955e-42, -6.723740289780085e-40, 2.2516714028101033e-18, -1.4467813225952127e-29, 4.983497633464364e-07, 2.2985363369509154e-39, 2.001168653383008e-18, -2.0704472860779127e-16, 3.9124657298327314e-46, 2.9353911159307026e-38, 2.3028324652541752e-39, 9.999983333461586e-10)",-8.32616829836e-05,1.90347306044e-07,8.10085711276e-41,2.69341526213e-22,-1.34757555199e-22,0.00271814469974,"(0.015368788744333796, -4.874247064298173e-58, -9.296773839569028e-39, 2.2477387708667283e-49, 9.582511719325085e-47, -2.770149876340369e-63, -4.8742470642982544e-58, 0.015368788744333796, 3.801153203580097e-38, -9.247818720424341e-49, -3.942163835897905e-46, 8.433671646309156e-63, -9.296773839569031e-39, 3.8011532035800993e-38, 4.987592748022527e-07, 1.2299585977982115e-29, 5.243072365568376e-27, -1.1204770084966104e-43, 2.247738770866729e-49, -9.24781872042434e-49, 1.2299585977982113e-29, 4.951437999912804e-07, 1.1366756049779989e-34, 5.8889267557715174e-24, 9.582511719325077e-47, -3.942163835897905e-46, 5.2430723655683736e-27, -3.1687140390637695e-27, 4.951437999912804e-07, -2.9443790860666625e-24, -2.697830190337171e-63, 8.462413344850115e-63, -1.1228680317462606e-43, 1.1237042274229986e-28, -2.9443790720651763e-24, 2.2465505719910995e-05)"
1970/01/01/01:00:05.040000,237,5,40000000,odom,base_footprint,0.00218228354918,8.2641305629e-06,-9.99282216163e-38,-2.31014379259e-28,-1.75999841872e-30,0.00594653371597,0.999982319212,"(0.27066631977422007, -6.82955271369366e-15, 1.211961768612203e-35, 6.451054935489002e-42, -1.798061721971538e-43, 1.9006339825435294e-18, -6.829586160974373e-15, 0.2706663197750458, -5.729593030740364e-34, -6.673811837278736e-40, -1.5965985730939284e-42, -1.9661179487555695e-16, 1.2119617686122037e-35, -5.729593030740362e-34, 4.993084292143547e-07, 4.415467805042189e-21, 1.8576491122936272e-18, 2.661293745936274e-48, 1.5768492982766738e-41, -1.6312052809503263e-39, 4.4154678050421886e-21, 4.98622527329714e-07, -1.1807256124001108e-29, 2.5722044835780985e-38, -1.799624256129015e-43, -1.580435270392632e-42, 1.857649112293628e-18, -1.1913785941983178e-29, 4.98622527329714e-07, -1.0203302534062416e-41, 1.90063398254353e-18, -1.9661179487555697e-16, -7.89633298201138e-49, -8.21405559605241e-39, -9.629740503935002e-42, 9.999983333475293e-10)",-8.24470149531e-05,1.88484866332e-07,2.62294417236e-42,-4.06315775032e-22,-2.73306469975e-28,0.00140018915741,"(0.015372564221046768, -1.2013063890669662e-57, -3.5160959615605026e-40, 1.0481254707886656e-50, 4.4047796600495177e-48, 1.762427626902208e-64, -1.201306389066974e-57, 0.015372564221046768, 3.7323566626603395e-38, -9.045532790380565e-49, -3.803833507144418e-46, 5.9388406962058155e-64, -3.5160959615605018e-40, 3.7323566626603363e-38, 4.989647769196439e-07, 1.0262441831555718e-29, 4.3155064917483185e-27, -6.543602842876702e-46, 1.0481254707886653e-50, -9.045532790380559e-49, 1.0262441831555716e-29, 4.959333658894787e-07, -6.357656115306407e-27, -5.8987943304931115e-24, 4.404779660049515e-48, -3.803833507144417e-46, 4.3155064917483185e-27, -6.357655992415098e-27, 4.959333658894787e-07, -2.905391634839598e-32, 1.688204909153828e-64, 5.1318067855670046e-64, 6.591579068417273e-47, -5.898911177244788e-24, -2.9053916672547545e-32, 2.2468196209294115e-05)"
1970/01/01/01:00:05.066000,238,5,60000000,odom,base_footprint,0.00218222824066,8.264700021e-06,-2.82915708032e-36,2.12009082977e-29,-3.19725034394e-29,0.00594611771357,0.999982321686,"(0.2717862114326757, -6.829880719393572e-15, 9.29532094632516e-35, -2.1962268387297557e-41, 1.8340149320179998e-42, 1.8743489745089044e-18, -6.829915011820227e-15, 0.27178621143350146, -7.205452562964341e-36, 2.2807326824499868e-39, -4.849785656016666e-40, -1.9466943913758222e-16, 9.295320946325157e-35, -7.205452562964433e-36, 4.993084292143546e-07, 4.2638570277860285e-21, 1.8392966879251327e-18, 7.472061990994631e-46, -6.271192108835324e-42, 6.506404781577783e-40, 4.263857027786024e-21, 4.986225273296596e-07, -6.157783060440364e-29, 8.149691500923933e-39, 1.833959224212995e-42, -4.8497277712988065e-40, 1.8392966879251324e-18, 3.889758363123783e-29, 4.986225273296596e-07, 1.6958308939691242e-38, 1.874348974508905e-18, -1.9466943913758227e-16, 7.437656427539729e-46, -1.7553948297526253e-38, 1.6958511283542433e-38, 9.999983333475293e-10)",-8.16312735543e-05,1.86619972756e-07,6.97813797876e-41,1.64007881119e-22,-2.61244971121e-26,-0.000199444888935,"(0.015376079696507694, -1.1391146256901691e-57, -6.057747385785321e-39, 1.4233033983901576e-49, 6.138638493017303e-47, -2.2376168644989793e-63, -1.1391146256901765e-57, 0.015376079696507694, 5.997061352413376e-40, -1.7252316478817604e-50, -7.439151509681598e-48, -3.236446763163969e-63, -6.057747385785319e-39, 5.997061352413377e-40, 4.989647769196436e-07, 9.907071750713502e-30, 4.272871965261325e-27, -1.5583627643042976e-43, 1.4233033983901572e-49, -1.72523164788176e-50, 9.907071750713496e-30, 4.959333658894788e-07, -1.0665387941700438e-37, 5.8989111920913925e-24, 6.138638493017303e-47, -7.439151509681596e-48, 4.2728719652613214e-27, -1.061145851212129e-37, 4.959333658894788e-07, 5.839438872050449e-29, -2.2257534365120475e-63, -3.2224731594297133e-63, -1.5500563298957764e-43, 1.1797705653609958e-23, 5.839438872034146e-29, 2.246819648753701e-05)"
1970/01/01/01:00:05.091000,239,5,80000000,odom,base_footprint,0.00218217383295,8.26525766367e-06,6.62589110212e-37,-6.15365911004e-29,7.36854142535e-30,0.0059464044605,0.999982319981,"(0.2729061046457658, -6.830202130213464e-15, -4.441250356729326e-35, -1.2474983536698229e-43, -8.586252899063555e-43, 1.8545882467700095e-18, -6.8302370768882846e-15, 0.27290610464659165, -3.906088959452213e-34, 1.3307124589106452e-41, 2.4113114689937575e-40, -1.9272557524072015e-16, -4.441250356729323e-35, -3.906088959452213e-34, 4.993084292143547e-07, 4.206797167731961e-21, 1.820930403053441e-18, -3.631191171417793e-46, 1.8410606136234508e-41, -1.912984682718361e-39, 4.2067971677319594e-21, 4.986225273296564e-07, 3.912968906614254e-29, 6.787602627748931e-38, -8.587087134091549e-43, 2.411398166889002e-40, 1.820930403053441e-18, -6.128298131159214e-29, 4.986225273296564e-07, -8.479366309649874e-39, 1.854588246770009e-18, -1.9272557524072018e-16, -3.698787490418782e-46, 6.236491428785686e-41, -8.479062156315088e-39, 9.99998333347529e-10)",-8.08149915506e-05,1.84753843286e-07,-1.63429824695e-41,-5.00901060377e-26,6.29473953952e-27,0.00396222281048,"(0.01537935380295136, -1.2835048974087187e-57, 3.217326140662896e-39, -7.457746825171084e-50, -3.2276997024246283e-47, -6.006522744894506e-64, -1.283504897408725e-57, 0.01537935380295136, 2.5414887911886587e-38, -5.874384701931337e-49, -2.5424301961329415e-46, -5.509482895270549e-63, 3.217326140662895e-39, 2.5414887911886566e-38, 4.989647769196439e-07, 9.774081199616944e-30, 4.23020523756088e-27, 7.57865305310092e-44, -7.4577468251710825e-50, -5.874384701931337e-49, 9.774081199616947e-30, 4.959333658894794e-07, 2.4569243416170445e-34, 2.3363576183468035e-28, -3.227699702424628e-47, -2.5424301961329415e-46, 4.230205237560879e-27, 2.456924829684084e-34, 4.959333658894794e-07, -2.9197193787391673e-29, -6.112786827438365e-64, -5.612269795701436e-63, 7.719718981762803e-44, 1.1641269750291066e-31, -2.9197193787636676e-29, 2.246819648756579e-05)"
1970/01/01/01:00:05.115000,240,5,100000000,odom,base_footprint,0.00218052365473,8.24940413173e-06,-1.41077082428e-36,-6.09191177017e-30,1.0239149512e-27,0.00594636322119,0.999982320226,"(0.27414238990340045, -6.830201222825735e-15, -2.087932145974642e-37, -2.7054687042061276e-48, -9.046417007992317e-42, 1.3208260467819208e-23, -6.830238036628143e-15, 0.2741423899042263, -6.733432330215363e-38, 1.0272116198044138e-45, 9.404123440389007e-40, -1.3748815134723751e-21, -2.087932145974641e-37, -6.733432330215399e-38, 4.995840263689072e-07, 1.2995820183363202e-21, 5.750601758470653e-19, -2.5473109193790727e-46, 8.825288822991788e-46, -9.097095666608603e-44, 1.2995820183363202e-21, 4.991694330607224e-07, -5.211596871528578e-29, 6.7341522914202054e-40, -9.051422246219227e-42, 9.4093247671043e-40, 5.750601758470653e-19, 4.8522772202140166e-29, 4.991694330607224e-07, 3.7066800931336616e-37, 1.320826046781921e-23, -1.374881513472375e-21, -2.5458993717237174e-46, 6.73373736523702e-40, 3.704631071590046e-37, 9.999983333445649e-10)",-8.42100146907e-05,1.92515318739e-07,1.75695679167e-41,-1.36777004127e-30,6.13334212892e-25,0.00867705685651,"(0.01619205233500704, -1.3538510978079207e-57, 6.884033500517138e-42, -8.859401700778959e-53, -3.915563399460917e-50, -8.558225246910071e-66, -1.3538510978079272e-57, 0.01619205233500704, 2.410264207190678e-42, -6.086469896718948e-53, -2.654505804217194e-50, -5.840833560177013e-65, 6.884033500517138e-42, 2.410264207190679e-42, 4.993765577113716e-07, 7.933152547538145e-31, 3.5105911884152917e-28, 2.1202874791070794e-44, -8.859401700778951e-53, -6.086469896718946e-53, 7.933152547538145e-31, 4.975246918074183e-07, -3.1991824414342152e-27, 5.843753311541673e-35, -3.915563399460916e-50, -2.6545058042171945e-50, 3.51059118841529e-28, -1.279696499384763e-26, 4.975246918074183e-07, 7.4010080653285e-28, -8.551330111236464e-66, -5.938915374246584e-65, 2.0158660007306116e-44, 2.9118123715146163e-38, -1.479133863108404e-24, 2.247448561614208e-05)"
1970/01/01/01:00:05.129000,241,5,120000000,odom,base_footprint,0.00218209881458,8.26666720682e-06,2.30121918296e-36,-2.03309826932e-31,3.41986669615e-29,0.00594631799703,0.999982320495,"(0.27514616647166834, -6.830746730326063e-15, -1.0185063705664743e-34, 5.4362017242316786e-42, 4.698882065650561e-42, 1.810066046527683e-18, -6.8307821664074625e-15, 0.2751461664724943, -1.2783204112543533e-36, -5.702840945433959e-40, -1.758604823590854e-40, -1.8843226264499113e-16, -1.0185063705664743e-34, -1.2783204112529922e-36, 4.993084292143411e-07, 4.067458125900003e-21, 1.780363396933347e-18, 3.6249941994665216e-46, -3.200138412228676e-44, 4.047016023840465e-42, 4.067458125900003e-21, 4.986225273292301e-07, -1.047078038526455e-29, 4.814567256665504e-41, 4.3754963783555806e-42, -1.4354683166333386e-40, 1.7803633969333466e-18, -1.047155470264337e-29, 4.986225273292301e-07, 6.383071562688349e-39, 1.810066046527683e-18, -1.8843226264499113e-16, 5.950034908191499e-48, 2.5580433680731643e-38, -2.0532225766278807e-39, 9.999983333475278e-10)",-7.90132306035e-05,1.80634777586e-07,-5.67597951876e-41,-6.04567500363e-38,5.30528746501e-23,0.00691795997535,"(0.015352070497498751, -1.158873177177835e-57, 6.636934106352585e-39, -1.4874398808097757e-49, -6.510711848866026e-47, 1.3775122599673932e-63, -1.1588731771778408e-57, 0.015352070497498751, 4.215488211186016e-49, -3.841452610588774e-60, -1.730039895363783e-57, -5.3810002033991056e-67, 6.636934106352587e-39, 4.215488211186016e-49, 4.989647769195424e-07, 9.449565941032896e-30, 4.136194719183602e-27, -8.740275668588642e-44, -1.4874398808097754e-49, -3.8414526105887695e-60, 9.449565941032898e-30, 4.959333657980171e-07, 1.216431429465747e-34, -7.346839692639297e-40, -6.510711848866028e-47, -1.7300398953637823e-57, 4.136194719183601e-27, -3.1788276298659917e-27, 4.959333657980171e-07, -1.4746928334906782e-24, 2.6094022977904565e-64, -5.4678418023208966e-67, -1.3095746977118514e-44, -5.898771333963822e-24, -1.4747218827109317e-24, 2.2468106138883322e-05)"
1970/01/01/01:00:05.149000,242,5,140000000,odom,base_footprint,0.00218204564659,8.26716434445e-06,1.27944231556e-36,-7.4986397439e-32,1.26228932871e-29,0.00594591624995,0.999982322884,"(0.2762660551895012, -6.831047975402572e-15, -7.231674020179683e-35, -8.803064424724944e-42, 3.502604840868412e-42, 1.794680749497073e-18, -6.8310836505133196e-15, 0.2762660551903272, -9.07071633610399e-37, 9.15292792855792e-40, -1.441712579296242e-40, -1.8652675218861815e-16, -7.231674020179682e-35, -9.07071633610487e-37, 4.993084292143546e-07, 4.068727504987405e-21, 1.7623620129659547e-18, 7.104459095827443e-46, -2.2126606086100669e-44, 2.807130424771554e-42, 4.068727504987406e-21, 4.986225273296558e-07, 3.9824912574723324e-29, 3.400425097429784e-41, 3.502567957788921e-42, -1.4416742670681871e-40, 1.7623620129659544e-18, -6.056196782538701e-29, 4.986225273296558e-07, 2.105989993559194e-38, 1.7946807494970726e-18, -1.8652675218861813e-16, 7.071694401289792e-46, -3.3902166714566284e-38, 2.1060042283919312e-38, 9.999983333475293e-10)",-7.82132519511e-05,1.7880591975e-07,-3.15966807497e-41,-1.33271048955e-38,-1.7908487026e-23,0.00496894735043,"(0.015357316784183615, -1.1048024839840795e-57, 4.720303875608584e-39, -1.0626029490111005e-49, -4.602070826567676e-47, 9.131703534796142e-64, -1.1048024839840854e-57, 0.015357316784183615, -4.72169184183449e-46, 1.0571732300400792e-56, 4.5785713480721743e-54, -5.407832871455701e-69, 4.720303875608584e-39, -4.7216918418344884e-46, 4.989647769196436e-07, 9.453211006354707e-30, 4.0941449479298176e-27, -1.2499329432574407e-43, -1.0626029490111e-49, 1.057173230040079e-56, 9.453211006354702e-30, 4.959333658894788e-07, 9.536483865472705e-27, -8.154436023598975e-41, -4.602070826567675e-47, 4.57857134807217e-54, 4.094144947929815e-27, -9.464580583338849e-38, 4.959333658894788e-07, 2.949514003760971e-24, 8.966268930567204e-64, -5.49171098008617e-69, -1.2430941474987916e-43, -1.1684697866697245e-28, 2.949514003760685e-24, 2.2468196478222278e-05)"
1970/01/01/01:00:05.166000,243,5,160000000,odom,base_footprint,0.00218199343581,8.26764896626e-06,-5.3941526701e-39,4.4076758707e-30,1.11303678033e-30,0.00594637282815,0.999982320169,"(0.2773859459618568, -6.831343213616239e-15, 1.738260670300893e-37, -8.856340891983601e-42, 3.689979076053643e-42, 1.777485532416967e-18, -6.831379190105073e-15, 0.27738594596268284, 2.1773280775646155e-39, 9.198068546997876e-40, -3.837782810689027e-40, -1.846212759991679e-16, 1.738260670300014e-37, 2.1773280866931547e-39, 4.993084292143547e-07, 4.045316951053256e-21, 1.744358541250656e-18, -1.825531153205909e-48, -6.027773210986727e-42, 6.2608693769880444e-40, 4.045316951053256e-21, 4.986225273296601e-07, -1.0168183912195713e-29, 8.212933313795415e-39, -1.538061689555706e-42, 1.5922498618503695e-40, 1.7443585412506557e-18, -1.0238933687463922e-29, 4.986225273296601e-07, 2.063023876655e-39, 1.7774855324169675e-18, -1.8462127599916794e-16, 3.54439935548368e-46, -3.391659815169959e-38, 6.435898742853592e-39, 9.999983333475293e-10)",-7.74132438519e-05,1.76976994595e-07,1.39618486732e-43,3.33689144001e-23,8.34221682103e-24,0.00436401555634,"(0.015362184811638386, -1.054133301869145e-57, -1.2425156655237058e-41, 3.3831204214144044e-52, 1.458231512502032e-49, -4.325685413272291e-67, -1.0541333018691507e-57, 0.015362184811638386, 9.874167784990198e-47, -2.1949053941744915e-57, -9.462931897097378e-55, -4.296349451401222e-71, -1.2425156655237063e-41, 9.87416778499019e-47, 4.989647769196439e-07, 9.399337866171073e-30, 4.052321070021691e-27, 1.1985198390899475e-44, 3.3831204214144014e-52, -2.1949053941744907e-57, 9.399337866171073e-30, 4.959333658894794e-07, -8.104339042979978e-38, 5.898911250304472e-24, 1.4582315125020315e-49, -9.462931897097377e-55, 4.0523210700216925e-27, -6.3576558695020025e-27, 4.959333658894794e-07, 1.4747278416801568e-24, 2.9612937786254934e-65, -1.7571807552936678e-71, -8.550343626423588e-44, -1.167887786077114e-28, -1.4746985862777157e-24, 2.2468196487564824e-05)"
1970/01/01/01:00:05.188000,244,5,180000000,odom,base_footprint,0.00218194217749,8.26812140146e-06,-7.67700358434e-37,2.63813498333e-29,-1.21327810328e-29,0.00594635112926,0.999982320298,"(0.2785058387948453, -6.831632473081157e-15, 2.9528157520069395e-35, 9.481945935464357e-45, -6.729855823571661e-42, 1.7565623560267763e-18, -6.831667574878192e-15, 0.2785058387956714, 1.234062813054362e-34, -1.1967464968887246e-42, 6.084602265233497e-40, -1.8271682561241064e-16, 2.952815752006945e-35, 1.2340628130542688e-34, 4.993084292143546e-07, 3.963755478034862e-21, 1.7263645652051849e-18, -3.4967286378548332e-46, 2.7520297955230313e-42, -2.866472796290256e-40, 3.963755478034862e-21, 4.986225273296525e-07, 4.032031628453996e-29, 4.2134478424683635e-38, -4.567880170416552e-42, 3.835296665470798e-40, 1.7263645652051845e-18, -6.0109720763368e-29, 4.986225273296525e-07, -6.421110567336427e-39, 1.7565623560267767e-18, -1.8271682561241064e-16, -7.043072827957221e-46, -1.4682121873202182e-41, -1.4909981583460084e-38, 9.999983333475293e-10)",-7.66137081099e-05,1.75149149311e-07,1.89390411828e-41,-8.60100479882e-23,-2.15178674263e-23,0.00455487131774,"(0.015366702302717852, -1.0435998324473572e-57, -2.0257395931862527e-39, 4.429579906397863e-50, 1.9291446409819368e-47, 3.725838537883643e-64, -1.0435998324473629e-57, 0.015366702302717852, -8.01282849183669e-39, 1.7477473573731274e-49, 7.611693951264409e-47, 1.7386788952992494e-63, -2.025739593186252e-39, -8.012828491836688e-39, 4.989647769196436e-07, 9.20869630480192e-30, 4.010519254894199e-27, 8.4467564110303e-44, 4.429579906397859e-50, 1.7477473573731277e-49, 9.208696304801918e-30, 4.959333658894788e-07, 3.6859824525243263e-34, 5.899028097289097e-24, 1.9291446409819358e-47, 7.61169395126441e-47, 4.010519254894195e-27, -3.1788277504564186e-27, 4.959333658894788e-07, 1.4746986299335474e-24, 7.037724352731142e-64, 3.2409958363921164e-63, 1.5839263138667883e-43, -1.1519844638058418e-36, 1.474669403636009e-24, 2.2468196487565787e-05)"
1970/01/01/01:00:05.209000,245,5,200000000,odom,base_footprint,0.002181891866,8.26857804861e-06,9.17690197099e-37,-6.21263744619e-29,-8.41010424119e-30,0.00594634296709,0.999982320346,"(0.27962573369322363, -6.831915458351571e-15, -3.253848374157374e-36, -3.1323614777347e-42, 2.346387974502197e-42, 1.7405717726525093e-18, -6.8319510580596356e-15, 0.2796257336940498, -3.326121138915118e-35, 3.2557313070155198e-40, -2.332362588686818e-40, -1.8081444223957684e-16, -3.253848374157371e-36, -3.3261211389151256e-35, 4.993084292143547e-07, 3.9549759865162534e-21, 1.7083903992079622e-18, -3.327913386357258e-46, 1.139325364123366e-41, -1.1832448110605552e-39, 3.9549759865162534e-21, 4.986225273296583e-07, -9.760193808491954e-30, 7.6067492816356e-38, 2.346344465488984e-42, -2.3323174026939524e-40, 1.7083903992079622e-18, -9.779795861729817e-30, 4.986225273296583e-07, -1.4634348647844783e-38, 1.7405717726525096e-18, -1.8081444223957686e-16, -3.359905325489773e-46, 5.03442915368568e-38, -1.463416618271382e-38, 9.999983333475293e-10)",-7.5815112974e-05,1.73323454378e-07,-2.26232725942e-41,1.90588024441e-22,-1.42985501554e-22,-0.00162845396373,"(0.015370894956512034, -9.910152019565826e-58, 2.3709995984018714e-40, -5.0548266603665615e-51, -2.1831977985624364e-48, -8.23661103896736e-65, -9.910152019565883e-58, 0.015370894956512034, 2.1727150902252415e-39, -4.77977736001783e-50, -2.0643300436062984e-47, 1.0331664645527283e-64, 2.3709995984018706e-40, 2.1727150902252412e-39, 4.989647769196439e-07, 9.189232692081424e-30, 3.9687634552882386e-27, 3.572038766835207e-44, -5.05482666036656e-51, -4.779777360017829e-50, 9.189232692081428e-30, 4.959333658894794e-07, -9.536483865651073e-27, 5.899144886067714e-24, -2.183197798562436e-48, -2.0643300436062974e-47, 3.968763455288241e-27, 3.68596207114263e-34, 4.959333658894794e-07, -4.4242126203714636e-24, -8.00881390039252e-65, 1.1599770223912778e-64, 3.649257632846936e-44, 1.1797939289386906e-23, -4.424212620371753e-24, 2.2468196487565793e-05)"
1970/01/01/01:00:05.229000,246,5,226000000,odom,base_footprint,0.00218142377622,8.26504591493e-06,2.94504811853e-36,4.32872457648e-27,-1.04022027146e-27,0.00597563253198,0.999982145749,"(0.2811155118613844, -6.831915124976668e-15, -1.237710087096614e-34, 6.907219825128829e-42, -2.1870721638894176e-42, 4.573539541702759e-18, -6.831951335635163e-15, 0.28111551186221057, 2.5178839169651884e-34, -7.171111931786591e-40, 4.1309921332680175e-40, -4.760680981414624e-16, -1.2377100870966137e-34, 2.517883916965188e-34, 9.972337452252814e-07, 8.502565209226295e-21, 3.6261533761280806e-18, -1.50388792689203e-40, 6.93571179340517e-42, -7.2007104137104765e-40, 8.502565209226295e-21, 9.944903334531677e-07, -1.1111350995293893e-29, -1.1632646567782846e-30, -3.1684882844812498e-43, 2.1881362808280846e-40, 3.626153376128081e-18, -1.117989590531524e-29, 9.944903334531677e-07, 2.9123134949917363e-31, 4.5735395417027585e-18, -4.760680981414623e-16, -3.4080978377861346e-40, -1.1632641494215994e-30, 5.820090301710912e-31, 0.0003600018080195437)",-7.57612622629e-05,1.73200344474e-07,-3.63859479305e-41,4.27988069679e-24,-1.06072556022e-24,0.00969467454043,"(0.015577407059064668, -1.4126232216478722e-57, 3.924080874821564e-39, -4.591218440440663e-50, -1.9569939331589902e-47, 8.279000845554955e-64, -1.4126232216478778e-57, 0.015577407059064668, -8.312644729649254e-39, 1.0087046647386865e-49, 4.302443509521565e-47, 1.0896160358886335e-62, 3.924080874821564e-39, -8.312644729649254e-39, 9.958592028663897e-07, 5.095998563081619e-30, 2.1730583225935475e-27, 3.0780842288804586e-43, -4.591218440440663e-50, 1.0087046647386863e-49, 5.09599856308162e-30, 9.837391829051689e-07, -2.537789258866081e-30, -9.540806644840312e-26, -1.956993933158991e-47, 4.302443509521566e-47, 2.173058322593549e-27, -2.537789257504787e-30, 9.837391829051689e-07, 2.3887808575412608e-26, -2.694808691084907e-63, 1.863592554208537e-62, 6.988170228366995e-43, -9.540804265626174e-26, 4.775176575573543e-26, 0.00014129035207296315)"
1970/01/01/01:00:05.245000,247,5,240000000,odom,base_footprint,0.00218182551624,8.26979919409e-06,-3.07244902996e-37,4.22405490838e-32,-3.83952996712e-30,0.00594634667035,0.999982320324,"(0.2818658211977099, -6.8323144391564544e-15, -8.408927106097155e-35, 3.6205074982767966e-43, 2.230474499165768e-42, 1.7008551202688049e-18, -6.8323504060293134e-15, 0.2818658211985362, -8.633451090162114e-37, -3.3388499719388134e-41, 9.094572790894603e-42, -1.7660686754404213e-16, -8.408927106097156e-35, -8.633451090158372e-37, 4.993084292143345e-07, 3.8740334590000075e-21, 1.668633817676006e-18, 6.729290817820774e-46, -2.693471152881205e-44, 3.3568663143154254e-42, 3.874033459000007e-21, 4.986225273290298e-07, 4.0888414177679374e-29, 3.918887326484408e-41, 2.132654802135566e-42, 1.8340272987952257e-41, 1.6686338176760058e-18, -5.958308253409818e-29, 4.986225273290298e-07, 1.6830943889877783e-38, 1.7008551202688049e-18, -1.7660686754404215e-16, 3.3341692386124705e-46, -3.3622390256559135e-38, 8.415968921024033e-39, 9.999983333475274e-10)",-7.40498688986e-05,1.69287871115e-07,7.58027113581e-42,1.44692341566e-29,-3.1247406129e-27,0.000600182026426,"(0.015342189591608485, -1.587187869982193e-57, 5.4722896824580105e-39, -1.1678964522948292e-49, -5.029452845093175e-47, 1.8057457399209207e-63, -1.5871878699821983e-57, 0.015342189591608485, -1.359715612102524e-41, 4.845954981006514e-52, 2.0832763535898922e-49, 2.495475260730492e-65, 5.4722896824580066e-39, -1.359715612102524e-41, 4.989647769194917e-07, 9.002220777840794e-30, 3.8767281979005885e-27, -1.4044135214813284e-43, -1.1678964522948288e-49, 4.845954981006512e-52, 9.0022207778408e-30, 4.959333657530568e-07, 3.1788277519860565e-27, -2.30325611739577e-33, -5.029452845093173e-47, 2.0832763535898914e-49, 3.876728197900588e-27, 3.1788275096496955e-27, 4.959333657530568e-07, 5.795479999330077e-29, 7.494049481665275e-64, -3.259621937415545e-64, -6.958292897081488e-44, -1.159107498859851e-28, 2.8978264437757364e-29, 2.2468074013855417e-05)"
1970/01/01/01:00:05.269000,248,5,260000000,odom,base_footprint,0.00218177649479,8.27020557545e-06,-1.95609077035e-36,5.91196799352e-29,-2.20528801193e-29,0.00594627681447,0.99998232074,"(0.2829857122016061, -6.832578930510884e-15, 1.0730831232189238e-34, -2.5493717902167337e-42, -1.7023006478232762e-42, 1.6825478262466755e-18, -6.832615150242517e-15, 0.28298571220243246, 2.2149399705969624e-34, 2.6413310914423103e-40, -1.346755831579508e-40, -1.747534117753101e-16, 1.0730831232189238e-34, 2.214939970596964e-34, 4.993084292143546e-07, 3.82710843131902e-21, 1.6511239483340564e-18, 6.65264025899861e-46, -1.3972010396660716e-41, 1.4505073263976634e-39, 3.82710843131902e-21, 4.986225273296596e-07, -5.935162029353531e-29, -2.57554644991344e-38, -2.7447087997615374e-43, -2.8297235588302423e-40, 1.6511239483340562e-18, 4.107719194831973e-29, 4.986225273296596e-07, 1.901169814673262e-38, 1.6825478262466749e-18, -1.7475341177531008e-16, 6.628782711294725e-46, -4.2181408326682496e-38, 2.1064941011912041e-38, 9.99998333347529e-10)",-7.32719440405e-05,1.67509431193e-07,4.8246842996e-41,7.15023689623e-23,1.78453553769e-23,0.0028755942766,"(0.015348376261114523, -1.7369655185678514e-57, -7.163343277713708e-39, 1.5106685629424303e-49, 6.516347748703924e-47, -2.1550169071184817e-63, -1.7369655185678562e-57, 0.015348376261114523, -1.432668104340357e-38, 3.0213377641910706e-49, 1.3032698196525576e-46, -4.344771025857203e-63, -7.163343277713707e-39, -1.432668104340357e-38, 4.989647769196439e-07, 8.892271441844803e-30, 3.835727699408212e-27, -1.2784795137225053e-43, 1.5106685629424301e-49, 3.02133776419107e-49, 8.892271441844803e-30, 4.959333658894794e-07, 6.3576558693334126e-27, 5.8987944582078426e-24, 6.516347748703923e-47, 1.303269819652557e-46, 3.835727699408212e-27, -3.1788279962311602e-27, 4.959333658894794e-07, 1.4747862061311966e-24, -1.9751396509141956e-63, -3.967835177554091e-63, -1.1665341133567049e-43, -5.899028035752091e-24, 2.949514017875759e-24, 2.2468196474900035e-05)"
1970/01/01/01:00:05.300000,249,5,280000000,odom,base_footprint,0.00218028079289,8.25583699386e-06,1.28548832597e-36,-1.99782810865e-27,-5.11203546752e-28,0.00594643329748,0.999982319809,"(0.2842220848448827, -6.832578611974332e-15, -5.548417896837391e-35, -3.0745449925854697e-41, -8.562253814706476e-42, 1.1969438358141929e-23, -6.832615466877277e-15, 0.28422208484570904, 2.1083967851468623e-34, 3.193456414089176e-39, 9.650065852726316e-40, -1.2459735498438538e-21, -5.548417896837389e-35, 2.108396785146811e-34, 4.995840263689073e-07, 1.242389954263403e-21, 5.211509816203547e-19, -2.108770382565182e-46, -3.501303686552415e-41, 3.636695074266341e-39, 1.2423899542634025e-21, 4.991694330607347e-07, -5.189718852946045e-29, 1.4821375884893375e-36, -8.030971136203212e-42, 9.09826684970095e-40, 5.211509816203551e-19, 4.878413972337534e-29, 4.991694330607347e-07, 3.7111965983272343e-37, 1.1969438358141926e-23, -1.2459735498438538e-21, -1.878951214481754e-46, 1.4809833609022066e-36, 3.711615364628117e-37, 9.999983333445649e-10)",-7.63047563492e-05,1.74442844403e-07,-1.59991244092e-41,-4.47593408152e-23,1.05900925533e-23,0.0083083140218,"(0.016160666916375903, -1.6236520827269944e-57, 1.7220045052219398e-39, -2.023825289107979e-50, -8.487615340247682e-48, -5.101321223222113e-64, -1.623652082727e-57, 0.016160666916375903, -6.892848568896723e-39, 8.106629774646658e-50, 3.3998544828931503e-47, 1.926360830997788e-63, 1.72200450522194e-39, -6.892848568896721e-39, 4.993765577113717e-07, 7.586005237711905e-31, 3.1814897373978385e-28, 1.83873741392496e-44, -2.023825289107979e-50, 8.106629774646657e-50, 7.586005237711906e-31, 4.975246918074185e-07, 6.398443296049567e-27, -5.916533976983549e-24, -8.48761534024768e-48, 3.3998544828931503e-47, 3.1814897373978376e-28, -7.841128775101272e-32, 4.975246918074185e-07, 1.4806144336057473e-24, -4.301493661330291e-64, 1.6336102915420312e-63, 1.5554808736528125e-44, 2.9589277763236965e-27, 7.408385533319774e-28, 2.2474485616140946e-05)"
1970/01/01/01:00:05.330000,250,5,300000000,odom,base_footprint,0.00218026644739,8.25657735808e-06,6.12163860533e-37,1.18156029468e-27,-5.8121320782e-28,0.00594642449787,0.999982319862,"(0.28534203419909104, -6.8325784718706446e-15, 9.17945042231238e-36, -3.4695669229628744e-43, -4.245711491992495e-44, 1.195094569194859e-23, -6.832615501153603e-15, 0.2853420341999174, 3.6219232273136835e-35, 3.6006679206947964e-41, -9.001691049460022e-42, -1.243971295934495e-21, 9.179450422312385e-36, 3.6219232273136883e-35, 4.995840263688276e-07, 1.199343918654883e-21, 5.149657428506229e-19, 4.707030378233262e-46, -3.321818595375964e-43, 3.447213831341223e-41, 1.199343918654883e-21, 4.9916943305946e-07, 4.883790492112872e-29, 1.4811588775441747e-36, 4.037001459466133e-44, -1.7604859582529315e-41, 5.149657428506228e-19, -5.180742153710057e-29, 4.9916943305946e-07, -7.413602303039993e-37, 1.1950945691948593e-23, -1.2439712959344952e-21, 2.262290767695377e-46, 1.482640152479256e-36, -3.7066031999511044e-37, 9.999983333445647e-10)",-7.53985662339e-05,1.72371173005e-07,-7.62020169795e-42,7.05331004443e-25,6.17888226816e-24,0.00516711206658,"(0.016146610094538858, -1.4600900845104643e-57, -3.1454950545819808e-40, 3.605613988739897e-51, 1.547664969771158e-48, -1.9012382861794354e-64, -1.46009008451047e-57, 0.016146610094538858, -1.172364782555665e-39, 1.3206410607397025e-50, 5.671701870205865e-48, -7.500313648069377e-64, -3.145495054581982e-40, -1.1723647825556652e-39, 4.993765577109698e-07, 7.333942012087648e-31, 3.1488028859326072e-28, -4.0064569622530145e-44, 3.605613988739898e-51, 1.3206410607397025e-50, 7.333942012087646e-31, 4.975246917089244e-07, 2.3522605820750792e-31, 2.9593622835824806e-27, 1.547664969771158e-48, 5.671701870205866e-48, 3.1488028859326072e-28, 7.840811050599322e-32, 4.975246917089244e-07, -1.481353731288086e-24, -9.889776690735631e-65, -3.1472269513996464e-64, -1.8832719671649552e-44, 5.9224555643529714e-24, -7.400875957294175e-28, 2.2474483180537985e-05)"
1970/01/01/01:00:05.330000,251,5,320000000,odom,base_footprint,0.0021802976442,8.2577903731e-06,2.75120243816e-38,-5.06120322374e-29,-1.81617847078e-29,0.00594642658686,0.999982319849,"(0.2864621256151698, -6.832698883153804e-15, 4.832818131060982e-36, 4.197637413794987e-45, -1.929287945421471e-43, 1.7003318541133515e-18, -6.832736583189766e-15, 0.2864621256159962, -4.79800594575862e-34, -4.378343050900938e-43, 2.0311989472568391e-41, -1.775015357567393e-16, 4.832818131060886e-36, -4.798005945758519e-34, 4.989647915227453e-07, 5.685025553877035e-21, 2.5069483071688643e-18, -7.158701178742032e-48, 7.331524913324326e-43, -7.653499309324913e-41, 5.685025553877037e-21, 4.979422937806568e-07, -1.3752728386634797e-29, -4.0151232165661986e-38, -2.1332014057457305e-42, 2.2286151463388142e-40, 2.506948307168866e-18, -1.378194796723554e-29, 4.979422937806568e-07, 3.050243855097148e-39, 1.700331854113351e-18, -1.775015357567393e-16, 3.409910239560984e-46, 1.680000443455846e-41, 1.0037934543436509e-38, 9.999983333448757e-10)",-7.4257286261e-05,1.69762054854e-07,-7.27429470719e-43,3.62957708483e-22,-9.07696476229e-23,0.00768332049635,"(0.0160795205335818, -1.4821767068368365e-57, 8.664224447395558e-41, -2.4227303089871722e-51, -1.071340989850788e-48, -8.295616822831379e-65, -1.482176706836842e-57, 0.0160795205335818, 3.122534166908262e-38, -6.539611103087915e-49, -2.8839947536041966e-46, -9.847167400151515e-64, 8.664224447395555e-41, 3.122534166908262e-38, 4.984519728417165e-07, 1.3191525862572885e-29, 5.817513502101346e-27, 1.7879089152373072e-44, -2.4227303089871728e-51, -6.5396111030879174e-49, 1.3191525862572888e-29, 4.939735422675895e-07, -3.1537538976151884e-27, -5.874184327141778e-24, -1.0713409898507872e-48, -2.883994753604198e-46, 5.817513502101345e-27, -3.1537538976154464e-27, 4.939735422675895e-07, 1.4685168711696466e-24, -3.330841740789135e-64, 2.7202086270827e-63, -5.445594035033867e-44, 5.843429344924704e-32, 1.468546081785442e-24, 2.2462336388712803e-05)"
1970/01/01/01:00:05.346000,252,5,340000000,odom,base_footprint,0.00218033645029,8.25905591541e-06,-5.59734186841e-37,-4.56159212214e-28,-1.24871091014e-28,0.00594641743159,0.999982319904,"(0.28758230992346573, -6.832699265727551e-15, 5.740955578778807e-35, -9.951641389241064e-45, 4.298482901055333e-42, 1.2118225394064752e-23, -6.832736111660756e-15, 0.2875823099242921, 2.4187895828869656e-34, 8.362267538071092e-43, -5.355067828280258e-40, -1.2613444003326075e-21, 5.740955578778809e-35, 2.418789582886966e-34, 3.3314840488038537e-07, 5.480264132534407e-22, 2.3465575546822363e-19, 1.7310648826189864e-46, 2.33416991617211e-41, -2.436893921036835e-39, 5.480264132534404e-22, 3.3296398796072663e-07, -6.979937758423411e-31, -9.898185974299256e-37, 4.2963706393031064e-42, -5.3528627918492715e-40, 2.346557554682236e-19, -6.927886796605613e-31, 3.3296398796072663e-07, -2.4707870465825623e-37, 1.2118225394064753e-23, -1.2613444003326081e-21, 1.718467266289607e-46, 1.7190573005271568e-40, -2.471698577101326e-37, 9.999983333445647e-10)",-7.30915435872e-05,1.67097011709e-07,6.96258853091e-42,-2.76371267117e-25,-7.26546553674e-26,0.00509338232135,"(0.01600431952187774, -1.9193971918242465e-57, -1.9596261543247363e-39, 2.2890552739338127e-50, 9.800308156554654e-48, -9.804672667300835e-64, -1.9193971918242516e-57, 0.01600431952187774, -7.820873094426955e-39, 9.132774305501745e-50, 3.910087876141289e-47, -3.9312400294375395e-63, -1.9596261543247372e-39, -7.820873094426959e-39, 3.3305613265930497e-07, 3.3529042315958614e-31, 1.435507645193007e-28, -1.4372141210580554e-44, 2.2890552739338117e-50, 9.132774305501736e-50, 3.3529042315958587e-31, 3.3223137790546226e-07, 1.426598185975945e-27, -1.975229291769443e-27, 9.800308156554654e-48, 3.910087876141291e-47, 1.435507645193006e-28, 4.279724631812277e-27, 3.3223137790546226e-07, -4.93317389727367e-28, -1.0042758447884959e-63, -3.9804983763409397e-63, -1.468533460001723e-44, 3.9476345981078754e-24, -9.874019669118214e-25, 2.2444812323567906e-05)"
1970/01/01/01:00:05.366000,253,5,360000000,odom,base_footprint,0.00218035776292,8.26011079873e-06,2.53878556835e-38,6.42182195544e-32,-1.08640546634e-29,0.0059460618179,0.999982322018,"(0.2887023932329013, -6.832884810769973e-15, 1.6076873723798057e-39, 3.082070837429249e-45, -5.805994258429088e-42, 1.7278151333550172e-18, -6.832922125239603e-15, 0.28870239323372776, -5.8172946139738034e-39, -3.1944541713932522e-43, 6.021645216119469e-40, -1.7920078334406422e-16, 1.60768737247986e-39, -5.8172946243509155e-39, 4.991708035498671e-07, 4.5232917235465166e-21, 1.9488600298184106e-18, -8.871727094079589e-48, 1.5998875298434e-47, -1.6815147410938116e-45, 4.523291723546514e-21, 4.983497633464114e-07, -1.064004381730164e-29, -6.268005079795362e-45, -5.427155041225301e-42, 5.628747545528537e-40, 1.9488600298184106e-18, -1.0622137038511887e-29, 4.983497633464114e-07, 7.587306493572756e-39, 1.7278151333550176e-18, -1.7920078334406422e-16, -3.3518963792211807e-46, 1.1454683058042139e-41, -2.297314848025808e-39, 9.999983333461586e-10)",-7.20425002706e-05,1.6469875885e-07,-6.26793214742e-43,-2.76985844252e-31,-6.84497881826e-23,0.0100580616698,"(0.0159524825876165, -1.7792308729157933e-57, -1.1913644775778964e-43, 4.0112544138965914e-54, 1.719835931075226e-51, -8.748949581619533e-66, -1.7792308729157981e-57, 0.0159524825876165, 4.521530794837097e-43, -1.493695987514675e-53, -6.40561008879636e-51, -4.119572101009407e-65, -1.1913644775778968e-43, 4.521530794837097e-43, 4.987592748022527e-07, 1.05341747838269e-29, 4.537969909361923e-27, 4.047806411383573e-44, 4.0112544138965914e-54, -1.4936959875146752e-53, 1.0534174783826894e-29, 4.951437999911375e-07, -6.33742841934814e-27, -1.878526014617656e-35, 1.7198359310752266e-51, -6.405610088796359e-51, 4.537969909361923e-27, -1.13885622089765e-34, 4.951437999911375e-07, 4.416610313673557e-24, -1.4945478274526131e-65, -2.013589340624121e-65, 9.644217142568415e-44, 3.7543665710987666e-32, 2.944378774285048e-24, 2.2465503302094055e-05)"
1970/01/01/01:00:05.386000,254,5,380000000,odom,base_footprint,0.00218037374835,8.26108448334e-06,-1.44684401522e-38,2.74628634396e-32,-4.618777421e-30,0.00594633659304,0.999982320384,"(0.28982246325698613, -6.833134463875635e-15, 1.9861588139992462e-36, 1.3605909807094654e-41, -7.075907470770908e-43, 1.6331509591765355e-18, -6.833170688053363e-15, 0.28982246325781263, 2.470212977234986e-38, -1.411864038528787e-39, 6.808469659887338e-41, -1.6946246087245223e-16, 1.986158813999321e-36, 2.4702129764494864e-38, 4.993084292143546e-07, 3.733644968433002e-21, 1.6011335397045747e-18, 3.4107788561274785e-48, 1.86272662339122e-46, -3.182528924044558e-44, 3.733644968433002e-21, 4.986225273296678e-07, -5.8841852904887e-29, -4.218258475576025e-43, 1.2952317170780433e-42, -1.3974944031868456e-40, 1.6011335397045747e-18, 4.1553487610271583e-29, 4.986225273296678e-07, -2.0385960888227344e-39, 1.6331509591765353e-18, -1.694624608724522e-16, -3.1919445600588584e-46, 2.5703108403303264e-38, -1.052290992679047e-38, 9.99998333347529e-10)",-7.10376326624e-05,1.6240149755e-07,4.17961864252e-43,-2.67831202392e-37,-3.36107509353e-23,0.00307925922217,"(0.01590832358766676, -1.6597214647995826e-57, -1.407669386261723e-40, 3.5471620857062204e-51, 1.5203033181700823e-48, -1.0899094501163426e-64, -1.659721464799588e-57, 0.01590832358766676, 1.5568879748106008e-45, -3.202712306308899e-56, -1.3731048712822823e-53, -4.011202068658164e-67, -1.407669386261722e-40, 1.5568879748106005e-45, 4.989647769196439e-07, 8.675747784077934e-30, 3.719595284885389e-27, -1.1303808496349605e-44, 3.547162085706218e-51, -3.202712306308897e-56, 8.675747784077934e-30, 4.959333658894787e-07, -3.1788282420261974e-27, -1.4693679385278594e-39, 1.5203033181700817e-48, -1.3731048712822818e-53, 3.719595284885387e-27, 6.357655992229958e-27, 4.959333658894787e-07, -1.4747277507137754e-24, -4.022269571530091e-64, -1.9631414418503128e-67, 5.593360141740959e-44, -5.8987943885370756e-24, -1.4747569624019408e-24, 2.2468196209044064e-05)"
1970/01/01/01:00:05.405000,255,5,400000000,odom,base_footprint,0.00218038746265,8.2620140297e-06,-1.53035506509e-36,3.48268938332e-29,-2.15118592301e-29,0.00594650154077,0.999982319403,"(0.2909425344528745, -6.8333768912462815e-15, 1.0315033331474448e-34, -7.94494124164838e-42, -6.289642450899508e-43, 1.6105088387630163e-18, -6.833412672313695e-15, 0.29094253445370105, 2.1071178813390224e-34, 8.238302767997717e-40, -2.0982733649985168e-40, -1.6712582831586588e-16, 1.0315033331474456e-34, 2.107117881338945e-34, 4.993084292143546e-07, 3.679197798202966e-21, 1.5790563018769044e-18, 6.405730416282778e-46, -2.5305018721165225e-42, 2.619627516792459e-40, 3.679197798202964e-21, 4.986225273296664e-07, -5.860440094106449e-29, -4.2176966925502576e-38, 2.74162573475012e-42, -5.5960226347308334e-40, 1.5790563018769053e-18, 4.1803053663048486e-29, 4.986225273296664e-07, 1.4900403991553992e-38, 1.6105088387630162e-18, -1.6712582831586588e-16, 3.1745903254615363e-46, -3.3983625379315595e-38, 8.474494351171915e-39, 9.99998333347529e-10)",-7.00583474319e-05,1.60162720974e-07,3.77751086303e-41,-4.31563978697e-23,-1.08138268899e-23,0.00585071855691,"(0.015867814534314243, -1.7683507772810612e-57, -6.827204768070617e-39, 1.3876437202274724e-49, 5.954141581070704e-47, -1.9483307233575447e-63, -1.7683507772810666e-57, 0.015867814534314243, -1.3504602712503142e-38, 2.7380761203467156e-49, 1.1748664263087792e-46, -4.619646660357133e-63, -6.827204768070623e-39, -1.350460271250314e-38, 4.989647769196439e-07, 8.549146759860981e-30, 3.668307600936255e-27, -1.4420628770402689e-43, 1.3876437202274718e-49, 2.7380761203467156e-49, 8.54914675986098e-30, 4.959333658894794e-07, -6.3576557465934116e-27, -5.8990280390746524e-24, 5.954141581070705e-47, 1.1748664263087788e-46, 3.668307600936254e-27, -3.178827750431248e-27, 4.959333658894794e-07, -1.4746694327373127e-24, -8.740833470611567e-64, -2.122433834796995e-63, -6.625151458975552e-44, -1.1684698321333927e-28, 2.9182642341327334e-29, 2.2468196487537167e-05)"
1970/01/01/01:00:05.433000,256,5,420000000,odom,base_footprint,0.00218040944423,8.26301175129e-06,7.90745547964e-38,4.655633476e-29,-3.44505434998e-29,0.00594652004888,0.999982319293,"(0.29206267900761373, -6.833394491850747e-15, -6.913274080510623e-38, -6.935230539228483e-42, 3.4693531896434506e-42, 1.0624148848920944e-18, -6.833430230667326e-15, 0.2920626790084403, 2.647379523329686e-37, 7.196740349647656e-40, -3.5983741529428226e-40, -1.1024748578596503e-16, -6.913274080510716e-38, 2.6473795233307256e-37, 4.97942351725832e-07, 1.0531906944325222e-20, 4.592249661454247e-18, 1.4781551928224148e-47, -6.884589645516368e-42, 7.144189262100743e-40, 1.0531906944325223e-20, 4.95934685880849e-07, -2.3464310627445598e-29, 1.8075791095717e-38, 5.215820746841123e-42, -5.410695664492702e-40, 4.592249661454248e-18, -2.3545809328233712e-29, 4.95934685880849e-07, -1.3578705679177957e-38, 1.0624148848920942e-18, -1.10247485785965e-16, 1.0110800012831032e-47, 1.80976610017991e-38, -9.048825686564427e-39, 9.999983333435752e-10)",-6.90451714277e-05,1.57846465573e-07,-1.94394299672e-42,1.21024982674e-22,-9.07687007642e-23,-0.000491863057387,"(0.015817184587234235, -1.6464951182259188e-57, 5.374412135219178e-42, -1.5930705593705769e-52, -6.909325728976509e-50, -2.284827560445611e-65, -1.6464951182259236e-57, 0.015817184587234235, -2.1695357196614076e-41, 6.464736948537936e-52, 2.803529666882371e-49, -4.243386229286961e-65, 5.374412135219176e-42, -2.1695357196614063e-41, 4.969323984066301e-07, 2.3542548152753717e-29, 1.0265096657712793e-26, -9.113867191996932e-44, -1.5930705593705762e-52, 6.464736948537933e-52, 2.3542548152753725e-29, 4.883654530115201e-07, -2.0858459924049934e-37, 5.805365846047229e-24, -6.909325728976504e-50, 2.8035296668823708e-49, 1.0265096657712794e-26, 3.08255079387689e-27, 4.883654530115201e-07, -4.354024469390538e-24, -8.1096674624232e-66, -2.233819309137311e-65, -6.073248846314431e-44, 5.805365930901925e-24, -2.902682965451383e-24, 2.2454549414858652e-05)"
1970/01/01/01:00:05.446000,257,5,440000000,odom,base_footprint,0.00218041847384,8.2638485498e-06,1.75886981405e-36,2.94857964999e-29,7.21459802633e-30,0.00594651136678,0.999982319345,"(0.29318275110303416, -6.833623245139444e-15, -6.928715891851186e-35, 1.3526557031362476e-41, 2.2107165612905155e-42, 1.5645214875828788e-18, -6.8336591055386485e-15, 0.2931827511038608, 2.8075588118206137e-34, -1.4045353234491652e-39, -6.034477798501903e-41, -1.6249379055127763e-16, -6.928715891851185e-35, 2.8075588118206137e-34, 4.993084292143546e-07, 3.557798411040814e-21, 1.5352912495255601e-18, -3.1113908358747433e-46, 2.2302642440299094e-42, -2.3120720617387e-40, 3.557798411040817e-21, 4.986225273296592e-07, -7.852055457259518e-30, -5.02924555040618e-38, 2.2152568130072865e-42, -6.081581998861984e-41, 1.5352912495255601e-18, -7.944611727507709e-30, 4.986225273296592e-07, -1.2599889347303768e-38, 1.5645214875828786e-18, -1.6249379055127763e-16, -3.051261199540488e-46, 2.575331629321143e-38, -1.2595469803668646e-38, 9.999983333475289e-10)",-6.8117134083e-05,1.55724848496e-07,-4.32966352992e-41,-4.95180471214e-22,-1.23795358704e-22,-0.00316849405114,"(0.015784173268803655, -1.5935062095773812e-57, 4.211392285377131e-39, -8.148769996602614e-50, -3.5158936495750927e-47, -8.748551825125478e-64, -1.5935062095773858e-57, 0.015784173268803655, -1.814699261902263e-38, 3.572031816472823e-49, 1.5411682494639495e-46, 1.3420311721128328e-63, 4.211392285377131e-39, -1.8146992619022634e-38, 4.989647769196439e-07, 8.266507947431024e-30, 3.5666369500271206e-27, 4.4503934664119365e-44, -8.148769996602615e-50, 3.572031816472824e-49, 8.26650794743103e-30, 4.959333658894723e-07, -3.1788281191178917e-27, -1.1797938490280093e-23, -3.5158936495750917e-47, 1.5411682494639499e-46, 3.566636950027122e-27, -3.1788276275351573e-27, 4.959333658894723e-07, -2.9494846798613845e-24, -9.080181289660553e-64, 1.2320589400985262e-63, 4.3335691329063406e-44, -5.898794034379315e-24, -2.949484665538544e-24, 2.2468195076160696e-05)"
