time,.header.seq,.header.stamp.secs,.header.stamp.nsecs,.header.frame_id,.name,.position,.velocity,.effort
1970/01/01/01:00:05.006000,177,5,6000000,,"['FL_calf_joint', 'FL_hip_joint', 'FL_thigh_joint', 'FR_calf_joint', 'FR_hip_joint', 'FR_thigh_joint', 'RL_calf_joint', 'RL_hip_joint', 'RL_thigh_joint', 'RR_calf_joint', 'RR_hip_joint', 'RR_thigh_joint']","(-2.1276431673595297, 0.0020195018294542066, 1.0494575570800908, -2.1262364642903933, -0.0015379358571490087, 1.0477526504160783, -2.134630377004494, 0.0011860442560376327, 1.0444685056739154, -2.133366317943601, -0.0005060887538403946, 1.0449910349719769)","(0.12713094590427287, 0.0007885559586780916, -0.06587495690616142, 0.11622877181203545, -0.0004303518807283083, -0.05999239230809694, 0.14721102080684154, 0.001141501858291339, -0.07556710330877994, 0.1424575916350801, -0.0009002258134104034, -0.0732220933660555)","(5.221855080514724, -0.3682129235442351, -0.011546956247564133, 5.034061984224707, 0.2793883778135438, 0.2600421005102104, 6.359071879700834, -0.22029972941713424, 0.9446354272094238, 6.16006288045955, 0.09646495651413373, 0.836511532441432)"
1970/01/01/01:00:05.026000,178,5,26000000,,"['FL_calf_joint', 'FL_hip_joint', 'FL_thigh_joint', 'FR_calf_joint', 'FR_hip_joint', 'FR_thigh_joint', 'RL_calf_joint', 'RL_hip_joint', 'RL_thigh_joint', 'RR_calf_joint', 'RR_hip_joint', 'RR_thigh_joint']","(-2.127643207971012, 0.0020223883336241144, 1.049457453353675, -2.126236467657149, -0.0015407292684290752, 1.0477526902074432, -2.1346304806799017, 0.0011898818441347103, 1.044468434527591, -2.133366300252751, -0.0005100212750681621, 1.0449911225460236)","(0.1271306739513717, 0.0007882134033935004, -0.06587479113813093, 0.11622875421193318, -0.00043002879572528373, -0.05999238355713951, 0.14721101620619864, 0.001140977004738761, -0.07556707551557323, 0.14245746760543615, -0.0008996783729145584, -0.07322203310269461)","(5.221864022635883, -0.36873044839672686, -0.011529279690772165, 5.034062696001737, 0.27988926241421713, 0.26003488545731857, 6.359090569448745, -0.2209873579569217, 0.9446480670057265, 6.1600604404333055, 0.09716953785320744, 0.8364954071495438)"
1970/01/01/01:00:05.046000,179,5,46000000,,"['FL_calf_joint', 'FL_hip_joint', 'FL_thigh_joint', 'FR_calf_joint', 'FR_hip_joint', 'FR_thigh_joint', 'RL_calf_joint', 'RL_hip_joint', 'RL_thigh_joint', 'RR_calf_joint', 'RR_hip_joint', 'RR_thigh_joint']","(-2.1276432485485355, 0.0020252737858230674, 1.0494573496748636, -2.126236471005866, -0.001543521666995673, 1.0477527299875833, -2.1346305842912114, 0.0011937181148828913, 1.0444683634052545, -2.1333662825467883, -0.00051395243788388, 1.0449912100782406)","(0.12713040210064513, 0.000787870969489613, -0.06587462543074461, 0.11622873660593759, -0.0004297058319458917, -0.05999237480842041, 0.14721101158832528, 0.0011404523201674743, -0.07556704772000182, 0.14245734361664222, -0.0008991311419670946, -0.07322197286308929)","(5.221872958030455, -0.3692477846187777, -0.01151161133812656, 5.034063404566907, 0.2803899654497033, 0.2600276724373102, 6.3591092477637075, -0.22167475039064669, 0.9446607024694034, 6.16005799744004, 0.09787387593945882, 0.836479289529592)"
1970/01/01/01:00:05.066000,180,5,66000000,,"['FL_calf_joint', 'FL_hip_joint', 'FL_thigh_joint', 'FR_calf_joint', 'FR_hip_joint', 'FR_thigh_joint', 'RL_calf_joint', 'RL_hip_joint', 'RL_thigh_joint', 'RR_calf_joint', 'RR_hip_joint', 'RR_thigh_joint']","(-2.1276432890920436, 0.0020281581863299536, 1.0494572460436604, -2.1262364743366433, -0.0015463130532449298, 1.047752769756456, -2.134630687838496, 0.0011975530679499968, 1.044468292306986, -2.1333662648257246, -0.0005178822418985263, 1.0449912975685587)","(0.12713013035156603, 0.0007875286568413903, -0.0658744597842445, 0.11622871899429212, -0.0004293829891394605, -0.0599923660618721, 0.14721100695333705, 0.001139927805214667, -0.07556701992224371, 0.1424572196685463, -0.0008985841199037264, -0.07322191264708568)","(5.2218818866928425, -0.36976493226193763, -0.011493951191018703, 5.034064109936655, 0.2808904869913415, 0.260020461459025, 6.359127914655656, -0.22236190666322198, 0.9446733335886713, 6.160055551485823, 0.09857797069794005, 0.8364631795913189)"
1970/01/01/01:00:05.086000,181,5,86000000,,"['FL_calf_joint', 'FL_hip_joint', 'FL_thigh_joint', 'FR_calf_joint', 'FR_hip_joint', 'FR_thigh_joint', 'RL_calf_joint', 'RL_hip_joint', 'RL_thigh_joint', 'RR_calf_joint', 'RR_hip_joint', 'RR_thigh_joint']","(-2.1276433296014794, 0.0020310415354307665, 1.0494571424600654, -2.1262364776495755, -0.0015491034275765259, 1.0477528095140194, -2.13463079132183, 0.0012013867030225, 1.0444682212328633, -2.1333662470895733, -0.000521810686744395, 1.0449913850169095)","(0.12712985870367918, 0.0007871864656089665, -0.06587429419841183, 0.11622870137751068, -0.0004290602671548699, -0.059992357317715336, 0.14721100230164694, 0.0011394034606063178, -0.07556699212283922, 0.14245709576045607, -0.0008980373059610131, -0.07322185245407692)","(5.221890808615848, -0.370281891377743, -0.011476299248381006, 5.034064812123732, 0.28139082710792235, 0.2600132525304909, 6.359146570135843, -0.2230488267202541, 0.9446859603522686, 6.160053102574379, 0.09928182205799961, 0.8364470773451668)"
1970/01/01/01:00:05.106000,182,5,106000000,,"['FL_calf_joint', 'FL_hip_joint', 'FL_thigh_joint', 'FR_calf_joint', 'FR_hip_joint', 'FR_thigh_joint', 'RL_calf_joint', 'RL_hip_joint', 'RL_thigh_joint', 'RR_calf_joint', 'RR_hip_joint', 'RR_thigh_joint']","(-2.1276433700767896, 0.0020339238334114995, 1.0494570389240785, -2.126236480944753, -0.0015518927903759305, 1.0477528492602328, -2.134630894741279, 0.0012052190198064139, 1.0444681501829578, -2.1333662293383497, -0.0005257377720786494, 1.044991472423229)","(0.12712958715650902, 0.0007868443960085444, -0.06587412867311201, 0.11622868375604636, -0.0004287376658274549, -0.059992348576058, 0.14721099763379344, 0.0011388792868134144, -0.07556696432236419, 0.14245697189238812, -0.0008974906993726658, -0.07322179228392127)","(5.221899723792454, -0.37079866201836936, -0.011458655511809801, 5.034065511142725, 0.28189098587013994, 0.26000604565855445, 6.359165214213945, -0.22373551051319185, 0.9446985827507003, 6.160050650710428, 0.09998542995359601, 0.8364309828019972)"
1970/01/01/01:00:05.125000,183,5,126000000,,"['FL_calf_joint', 'FL_hip_joint', 'FL_thigh_joint', 'FR_calf_joint', 'FR_hip_joint', 'FR_thigh_joint', 'RL_calf_joint', 'RL_hip_joint', 'RL_thigh_joint', 'RR_calf_joint', 'RR_hip_joint', 'RR_thigh_joint']","(-2.12764341051793, 0.002036805080561699, 1.0494569354356962, -2.1262364842222645, -0.0015546811420339424, 1.0477528889950598, -2.1346309980969123, 0.001209050018026403, 1.0444680791573386, -2.133366211572066, -0.0005296634975744396, 1.0449915597874568)","(0.12712931570949218, 0.0007865024479222636, -0.06587396320833051, 0.11622866613008824, -0.0004284151849798498, -0.05999233983684235, 0.14721099295009804, 0.0011383552842988357, -0.07556693652087104, 0.14245684806391284, -0.0008969442995773636, -0.07322173213614716)","(5.22190863221804, -0.37131524423723566, -0.011441019982282474, 5.034066207007995, 0.2823909633453607, 0.2599988408497997, 6.359183846899413, -0.22442195799494705, 0.9447112007723588, 6.160048195897471, 0.10068879432158978, 0.8364148959683493)"
1970/01/01/01:00:05.146000,184,5,146000000,,"['FL_calf_joint', 'FL_hip_joint', 'FL_thigh_joint', 'FR_calf_joint', 'FR_hip_joint', 'FR_thigh_joint', 'RL_calf_joint', 'RL_hip_joint', 'RL_thigh_joint', 'RR_calf_joint', 'RR_hip_joint', 'RR_thigh_joint']","(-2.127643450924854, 0.0020396852771753515, 1.0494568319949202, -2.1262364874821973, -0.0015574684829395835, 1.0477529287184657, -2.1346311013887975, 0.0012128796974240075, 1.0444680081560698, -2.133366193790737, -0.0005335878629297852, 1.044991647109538)","(0.12712904436226824, 0.0007861606215748677, -0.06587379780359763, 0.11622864850006878, -0.00042809282438156863, -0.059992331099595224, 0.1472109882509669, 0.0011378314537358416, -0.07556690871846139, 0.14245672427520664, -0.000896398105920525, -0.07322167201058229)","(5.221917533885454, -0.3718316380862773, -0.011423392660187326, 5.034066899732235, 0.2828907596037355, 0.25999163811080817, 6.359202468201977, -0.2251081691215711, 0.9447238144064395, 6.160045738137649, 0.1013919151041929, 0.836398816854413)"
1970/01/01/01:00:05.166000,185,5,166000000,,"['FL_calf_joint', 'FL_hip_joint', 'FL_thigh_joint', 'FR_calf_joint', 'FR_hip_joint', 'FR_thigh_joint', 'RL_calf_joint', 'RL_hip_joint', 'RL_thigh_joint', 'RR_calf_joint', 'RR_hip_joint', 'RR_thigh_joint']","(-2.127643491297521, 0.002042564423547333, 1.0494567286017489, -2.126236490724631, -0.001560254813476547, 1.0477529684304212, -2.1346312046169915, 0.0012167080577576428, 1.0444679371792152, -2.13336617599437, -0.0005375108678622453, 1.04499173438942)","(0.12712877311433374, 0.0007858189169933419, -0.06587363245894594, 0.11622863086644447, -0.00042777058382140914, -0.05999232236472267, 0.14721098353724849, 0.0011373077954846377, -0.07556688091584429, 0.14245660052588435, -0.0008958521177275759, -0.07322161190676069)","(5.221926428791553, -0.3723478436203326, -0.01140577354668515, 5.034067589327843, 0.2833903747126883, 0.25998443744516275, 6.359221078128469, -0.22579414385288052, 0.944736423644088, 6.160043277434656, 0.10209479224631747, 0.8363827454658261)"
1970/01/01/01:00:05.186000,186,5,186000000,,"['FL_calf_joint', 'FL_hip_joint', 'FL_thigh_joint', 'FR_calf_joint', 'FR_hip_joint', 'FR_thigh_joint', 'RL_calf_joint', 'RL_hip_joint', 'RL_thigh_joint', 'RR_calf_joint', 'RR_hip_joint', 'RR_thigh_joint']","(-2.12764353163589, 0.0020454425199760706, 1.0494566252561874, -2.126236493949646, -0.001563040134023197, 1.0477530081309014, -2.134631307781553, 0.0012205350988025998, 1.0444678662268352, -2.133366158182973, -0.0005414325121089192, 1.0449918216270566)","(0.12712850196532857, 0.0007854773343003776, -0.06587346717400981, 0.11622861322949407, -0.0004274484632811349, -0.059992313631887374, 0.14721097880899536, 0.0011367843100369792, -0.07556685311299594, 0.1424564768158333, -0.0008953063344843337, -0.073221551824132)","(5.221935316930309, -0.3728638608934094, -0.01138816264453174, 5.034068275808345, 0.28388980873997866, 0.25997723885727825, 6.3592396766871, -0.22647988215122153, 0.9447490284767076, 6.160040813790445, 0.10279742569763659, 0.8363666818095887)"
1970/01/01/01:00:05.208000,187,5,206000000,,"['FL_calf_joint', 'FL_hip_joint', 'FL_thigh_joint', 'FR_calf_joint', 'FR_hip_joint', 'FR_thigh_joint', 'RL_calf_joint', 'RL_hip_joint', 'RL_thigh_joint', 'RR_calf_joint', 'RR_hip_joint', 'RR_thigh_joint']","(-2.127643571939931, 0.0020483195667626575, 1.0494565219582395, -2.1262364971573238, -0.0015658244449596737, 1.0477530478198815, -2.1346314108825295, 0.0012243608203510448, 1.0444677952989831, -2.133366140356552, -0.0005453527954246695, 1.0449919088224027)","(0.12712823091485714, 0.0007851358735973743, -0.06587330194887107, 0.11622859558953874, -0.0004271264624803255, -0.05999230490114473, 0.14721097406664801, 0.0011362609978632446, -0.0755668253103393, 0.1424563531450122, -0.0008947607555967907, -0.0732214917628847)","(5.221944198298845, -0.37337968995927556, -0.011370559954675952, 5.0340689591852, 0.28438906175341605, 0.2599700423529031, 6.359258263885247, -0.22716538398096417, 0.9447616288942569, 6.160038347206864, 0.10349981540970676, 0.8363506258917885)"
1970/01/01/01:00:05.226000,188,5,226000000,,"['FL_calf_joint', 'FL_hip_joint', 'FL_thigh_joint', 'FR_calf_joint', 'FR_hip_joint', 'FR_thigh_joint', 'RL_calf_joint', 'RL_hip_joint', 'RL_thigh_joint', 'RR_calf_joint', 'RR_hip_joint', 'RR_thigh_joint']","(-2.12764361220961, 0.002051195564209074, 1.049456418707905, -2.126236500347737, -0.0015686077466661175, 1.0477530874973429, -2.1346315139199783, 0.001228185222210243, 1.0444677243957212, -2.1333661225151115, -0.0005492717175856754, 1.044991995975419)","(0.12712795996257226, 0.0007847945348889317, -0.06587313678319733, 0.1162285779468244, -0.0004268045813858471, -0.05999229617245417, 0.1472109693105245, 0.0011357378593261631, -0.07556679750785987, 0.14245622951303377, -0.0008942153805640113, -0.07322143172235532)","(5.221953072893782, -0.3738953308733272, -0.011352965477615107, 5.034069639469626, 0.28488813381928013, 0.25996284793371205, 6.35927683972966, -0.2278506493101039, 0.9447742248885906, 6.160035877686511, 0.10420196133822926, 0.8363345777183919)"
1970/01/01/01:00:05.247000,189,5,246000000,,"['FL_calf_joint', 'FL_hip_joint', 'FL_thigh_joint', 'FR_calf_joint', 'FR_hip_joint', 'FR_thigh_joint', 'RL_calf_joint', 'RL_hip_joint', 'RL_thigh_joint', 'RR_calf_joint', 'RR_hip_joint', 'RR_thigh_joint']","(-2.127643652444899, 0.002054070512621742, 1.0494563155051875, -2.1262365035209623, -0.0015713900395173397, 1.0477531271632659, -2.1346316168939437, 0.0012320083042007823, 1.0444676535170956, -2.1333661046586556, -0.000553189278378774, 1.0449920830860657)","(0.12712768910806366, 0.0007844533181936896, -0.06587297167698991, 0.11622856030181172, -0.0004264828197326474, -0.05999228744581163, 0.14721096454079596, 0.0011352148947881779, -0.07556676970599252, 0.14245610591970154, -0.0008936702088007399, -0.07322137170234475)","(5.22196194071223, -0.37441078369107905, -0.011335379215765995, 5.034070316673896, 0.2853870250051545, 0.25995565560316997, 6.3592954042289245, -0.22853567810861877, 0.9447868164510937, 6.160033405230735, 0.10490386344294188, 0.8363185372945623)"
1970/01/01/01:00:05.272000,190,5,266000000,,"['FL_calf_joint', 'FL_hip_joint', 'FL_thigh_joint', 'FR_calf_joint', 'FR_hip_joint', 'FR_thigh_joint', 'RL_calf_joint', 'RL_hip_joint', 'RL_thigh_joint', 'RR_calf_joint', 'RR_hip_joint', 'RR_thigh_joint']","(-2.1276436926457727, 0.0020569444123070824, 1.0494562123500923, -2.1262365066770688, -0.001574171323884599, 1.0477531668176345, -2.1346317198044718, 0.001235830066159238, 1.0444675826631578, -2.1333660867871913, -0.0005571054776138951, 1.04499217015431)","(0.12712741835103283, 0.0007841122236256821, -0.06587280663013706, 0.11622854265473997, -0.00042616117746004415, -0.05999227872138588, 0.14721095975786042, 0.0011346921047719362, -0.07556674190492833, 0.14245598236479717, -0.000893125239893046, -0.07322131170258633)","(5.221970801750032, -0.3749260484673163, -0.011317801168186703, 5.034070990808699, 0.28588573537637935, 0.2599484653651584, 6.359313957388485, -0.2292204703492776, 0.9447994035763131, 6.160030929843086, 0.10560552168581203, 0.8363025046250029)"
1970/01/01/01:00:05.303000,191,5,286000000,,"['FL_calf_joint', 'FL_hip_joint', 'FL_thigh_joint', 'FR_calf_joint', 'FR_hip_joint', 'FR_thigh_joint', 'RL_calf_joint', 'RL_hip_joint', 'RL_thigh_joint', 'RR_calf_joint', 'RR_hip_joint', 'RR_thigh_joint']","(-2.1276437328122064, 0.00205981726357507, 1.0494561092426178, -2.126236509816124, -0.0015769516001391537, 1.047753206460432, -2.134631822651614, 0.0012396505079363962, 1.044467511833954, -2.133366068900722, -0.0005610203151169557, 1.0449922571801178)","(0.1271271476911942, 0.0007837712512183692, -0.06587264164275645, 0.11622852500601243, -0.0004258396544547887, -0.059992269999214844, 0.14721095496174713, 0.0011341694894674422, -0.07556671410498034, 0.14245585884812387, -0.0008925804732965079, -0.07322125172306966)","(5.221979656006508, -0.3754411252587808, -0.01130023133646596, 5.034071661883922, 0.28638426499990605, 0.2599412772239712, 6.3593324992176194, -0.2299050260078481, 0.9448119862546512, 6.1600284515257675, 0.10630693603207074, 0.8362864797139123)"
1970/01/01/01:00:05.331000,192,5,306000000,,"['FL_calf_joint', 'FL_hip_joint', 'FL_thigh_joint', 'FR_calf_joint', 'FR_hip_joint', 'FR_thigh_joint', 'RL_calf_joint', 'RL_hip_joint', 'RL_thigh_joint', 'RR_calf_joint', 'RR_hip_joint', 'RR_thigh_joint']","(-2.127643772944179, 0.002062689066735679, 1.049456006182762, -2.1262365129381955, -0.0015797308686558154, 1.0477532460916397, -2.1346319254354187, 0.0012434696293972536, 1.0444674410295303, -2.133366050999257, -0.0005649337907263074, 1.0449923441634592)","(0.12712687712834844, 0.0007834304010330604, -0.06587247671465793, 0.11622850735590588, -0.0004255182504714549, -0.059992261279329266, 0.1472109501526352, 0.0011336470493809366, -0.07556668630618446, 0.1424557353692093, -0.0008920359085649085, -0.07322119176322953)","(5.221988503477656, -0.37595601412205626, -0.011282669719814842, 5.034072329909804, 0.28688261394114334, 0.25993409118165534, 6.359351029722851, -0.23058934506034867, 0.9448245644814971, 6.16002597028124, 0.10700810645022812, 0.8362704625640158)"
1970/01/01/01:00:05.331000,193,5,326000000,,"['FL_calf_joint', 'FL_hip_joint', 'FL_thigh_joint', 'FR_calf_joint', 'FR_hip_joint', 'FR_thigh_joint', 'RL_calf_joint', 'RL_hip_joint', 'RL_thigh_joint', 'RR_calf_joint', 'RR_hip_joint', 'RR_thigh_joint']","(-2.1276438130416704, 0.0020655598221042126, 1.0494559031705233, -2.1262365160433454, -0.0015825091297969607, 1.0477532857112433, -2.1346320281559352, 0.001247287430416577, 1.0444673702499259, -2.1333660330828046, -0.000568845904296289, 1.0449924311043093)","(0.12712660666205847, 0.0007830896731035108, -0.06587231184593761, 0.1162284897044823, -0.00042519696548868263, -0.05999225256164965, 0.1472109453307523, 0.001133124784644081, -0.0755666585088757, 0.1424556119280194, -0.0008914915452157602, -0.07322113182301335)","(5.2219973441635545, -0.37647071511285785, -0.01126511631944438, 5.034072994896694, 0.2873807822657901, 0.25992690724280687, 6.359369548912663, -0.23127342748789076, 0.9448371382493902, 6.1600234861128484, 0.10770903291127513, 0.8362544531820344)"
1970/01/01/01:00:05.346000,194,5,346000000,,"['FL_calf_joint', 'FL_hip_joint', 'FL_thigh_joint', 'FR_calf_joint', 'FR_hip_joint', 'FR_thigh_joint', 'RL_calf_joint', 'RL_hip_joint', 'RL_thigh_joint', 'RR_calf_joint', 'RR_hip_joint', 'RR_thigh_joint']","(-2.127643853104665, 0.002068429529994198, 1.0494558002058998, -2.126236519131634, -0.0015852863839320719, 1.047753325319226, -2.1346321308132117, 0.001251103910886897, 1.0444672994951816, -2.133366015151374, -0.0005727566556990027, 1.0449925180026378)","(0.12712633629206999, 0.0007827490674824501, -0.06587214703661298, 0.11622847205222993, -0.00042487579935070435, -0.05999224384659908, 0.14721094049609024, 0.0011326026958161305, -0.07556663071322847, 0.1424554885242132, -0.0008909473827774032, -0.07322107190240912)","(5.222006178061703, -0.37698522828816994, -0.01124757113251229, 5.03407365685342, 0.2878787700391733, 0.2599197254097319, 6.35938805679512, -0.23195727327185542, 0.9448497075530264, 6.160020999024507, 0.10840971538964202, 0.836238451570327)"
1970/01/01/01:00:05.366000,195,5,366000000,,"['FL_calf_joint', 'FL_hip_joint', 'FL_thigh_joint', 'FR_calf_joint', 'FR_hip_joint', 'FR_thigh_joint', 'RL_calf_joint', 'RL_hip_joint', 'RL_thigh_joint', 'RR_calf_joint', 'RR_hip_joint', 'RR_thigh_joint']","(-2.127643893133147, 0.0020712981907218264, 1.0494556972888827, -2.126236522203122, -0.0015880626314235258, 1.0477533649155717, -2.1346322334072942, 0.0012549190707096258, 1.0444672287653347, -2.1333659972049794, -0.000576666044817209, 1.0449926048584244)","(0.12712606601814602, 0.0007824085841431942, -0.06587198228654322, 0.11622845439940116, -0.00042455475193939557, -0.05999223513398217, 0.14721093564892834, 0.001132080782972805, -0.07556660291948823, 0.14245536515763335, -0.0008904034209403714, -0.07322101200079134)","(5.222015005171782, -0.3774995537059396, -0.011230034158564717, 5.034074315789647, 0.28837657732579147, 0.25991254568553535, 6.359406553378539, -0.23264088239617992, 0.944862272386625, 6.160018509018471, 0.10911015386058603, 0.8362224577310655)"
1970/01/01/01:00:05.386000,196,5,386000000,,"['FL_calf_joint', 'FL_hip_joint', 'FL_thigh_joint', 'FR_calf_joint', 'FR_hip_joint', 'FR_thigh_joint', 'RL_calf_joint', 'RL_hip_joint', 'RL_thigh_joint', 'RR_calf_joint', 'RR_hip_joint', 'RR_thigh_joint']","(-2.1276439331271035, 0.002074165804605066, 1.0494555944194701, -2.126236525257866, -0.0015908378726408046, 1.0477534045002646, -2.134632335938236, 0.0012587329097994981, 1.0444671580604172, -2.1333659792436306, -0.0005805740715496555, 1.0449926916716459)","(0.12712579584007702, 0.0007820682232594358, -0.06587181759563933, 0.1162284367460106, -0.00042423382306448136, -0.05999222642390533, 0.1472109307895319, 0.0011315590465121603, -0.07556657512785254, 0.14245524182805616, -0.0008898596591901747, -0.07322095211847149)","(5.222023825492177, -0.3780136914223475, -0.011212505399267658, 5.034074971713482, 0.28887420419109233, 0.25990536807566045, 6.359425038668463, -0.23332425484704974, 0.9448748327460451, 6.160016016098762, 0.10981034830434801, 0.8362064716675653)"
1970/01/01/01:00:05.418000,197,5,406000000,,"['FL_calf_joint', 'FL_hip_joint', 'FL_thigh_joint', 'FR_calf_joint', 'FR_hip_joint', 'FR_thigh_joint', 'RL_calf_joint', 'RL_hip_joint', 'RL_thigh_joint', 'RR_calf_joint', 'RR_hip_joint', 'RR_thigh_joint']","(-2.1276439730865206, 0.002077032371965437, 1.0494554915976497, -2.1262365282959177, -0.0015936121079391796, 1.0477534440732903, -2.1346324384060855, 0.001262545428081907, 1.0444670873804647, -2.1333659612673426, -0.0005844807358110771, 1.0449927784422828)","(0.12712552575747765, 0.0007817279846632272, -0.06587165296405872, 0.11622841909249171, -0.00042391301272131363, -0.05999221771629959, 0.14721092591786475, 0.0011310374866545752, -0.07556654733850084, 0.14245511853525444, -0.0008893160972481357, -0.07322089225492809)","(5.222032639021811, -0.37852764149676466, -0.011194984850204093, 5.034075624634172, 0.2893716506988801, 0.25989819257937535, 6.359443512675201, -0.23400739061346817, 0.9448873886255684, 6.160013520268776, 0.11051029870213215, 0.8361904933832214)"
1970/01/01/01:00:05.433000,198,5,426000000,,"['FL_calf_joint', 'FL_hip_joint', 'FL_thigh_joint', 'FR_calf_joint', 'FR_hip_joint', 'FR_thigh_joint', 'RL_calf_joint', 'RL_hip_joint', 'RL_thigh_joint', 'RR_calf_joint', 'RR_hip_joint', 'RR_thigh_joint']","(-2.127644013011391, 0.0020798978931235723, 1.0494553888234144, -2.126236531317332, -0.001596385337682804, 1.047753483634632, -2.1346325408108884, 0.00126635662549468, 1.0444670167255055, -2.133365943276127, -0.0005883860375215377, 1.0449928651703173)","(0.12712525577019537, 0.0007813878685730374, -0.0658714883915473, 0.11622840143896943, -0.0004235923207637394, -0.059992209011457756, 0.14721092103417466, 0.0011305161036403823, -0.07556651955148767, 0.1424549952791951, -0.0008887727347076084, -0.07322083241012384)","(5.22204144576139, -0.3790414039860745, -0.011177472511577191, 5.03407627455912, 0.28986891691435557, 0.2598910192022939, 6.359461975405455, -0.2346902896846246, 0.9448999400206208, 6.1600110215319095, 0.11121000503798877, 0.8361745228784931)"
1970/01/01/01:00:05.446000,199,5,446000000,,"['FL_calf_joint', 'FL_hip_joint', 'FL_thigh_joint', 'FR_calf_joint', 'FR_hip_joint', 'FR_thigh_joint', 'RL_calf_joint', 'RL_hip_joint', 'RL_thigh_joint', 'RR_calf_joint', 'RR_hip_joint', 'RR_thigh_joint']","(-2.127644052901706, 0.0020827623684018803, 1.0494552860967552, -2.1262365343221603, -0.0015991575622322785, 1.0477535231842792, -2.1346326431527, 0.0012701665019863029, 1.0444669460955698, -2.1333659252699997, -0.0005922899766224177, 1.0449929518557344)","(0.12712498587800108, 0.0007810478748472103, -0.06587132387819271, 0.11622838378559797, -0.00042327174696412534, -0.05999220030895437, 0.14721091613866333, 0.001129994897745767, -0.07556649176721039, 0.14245487205969293, -0.0008882295711450348, -0.07322077258399061)","(5.222050245710841, -0.3795549789489801, -0.011159968382494667, 5.034076921497428, 0.29036600290057013, 0.25988384794541175, 6.359480426867635, -0.23537295205312941, 0.9449124869272915, 6.160008519891272, 0.11190946729903253, 0.8361585601565652)"
1970/01/01/01:00:05.466000,200,5,466000000,,"['FL_calf_joint', 'FL_hip_joint', 'FL_thigh_joint', 'FR_calf_joint', 'FR_hip_joint', 'FR_thigh_joint', 'RL_calf_joint', 'RL_hip_joint', 'RL_thigh_joint', 'RR_calf_joint', 'RR_hip_joint', 'RR_thigh_joint']","(-2.1276440927574587, 0.0020856257981245463, 1.0494551834176615, -2.126236537310451, -0.001601928781942874, 1.0477535627222165, -2.134632745431559, 0.0012739750575159192, 1.0444668754906843, -2.133365907248975, -0.0005961925530604262, 1.0449930384985189)","(0.12712471608068826, 0.0007807080036702358, -0.06587115942396947, 0.11622836613267659, -0.0004229512914668398, -0.05999219160925521, 0.14721091123149077, 0.0011294738691770131, -0.07556646398556885, 0.14245474887656392, -0.0008876866062773436, -0.07322071277611711)","(5.2220590388700225, -0.3800683664436682, -0.011142472460961783, 5.034077565456153, 0.29086290872168374, 0.259876678812097, 6.359498867068397, -0.23605537771283158, 0.9449250293424892, 6.160006015350952, 0.1126086854727937, 0.8361426052191808)"
1970/01/01/01:00:05.486000,201,5,486000000,,"['FL_calf_joint', 'FL_hip_joint', 'FL_thigh_joint', 'FR_calf_joint', 'FR_hip_joint', 'FR_thigh_joint', 'RL_calf_joint', 'RL_hip_joint', 'RL_thigh_joint', 'RR_calf_joint', 'RR_hip_joint', 'RR_thigh_joint']","(-2.127644132578645, 0.0020884881826166435, 1.049455080786128, -2.126236540282253, -0.0016046989971751913, 1.0477536022484326, -2.1346328476475174, 0.0012777822920524429, 1.0444668049108738, -2.133365889213067, -0.0006000937668000361, 1.0449931250986584)","(0.12712444637808695, 0.0007803682548829758, -0.0658709950288577, 0.11622834848030963, -0.00042263095394167496, -0.059992182912171156, 0.14721090631275827, 0.0011289530181332447, -0.07556643620676748, 0.14245462572960949, -0.000887143839678745, -0.07322065298642702)","(5.222067825239105, -0.3805815665285876, -0.011124984745863653, 5.034078206443908, 0.29135963444162855, 0.2598695118037531, 6.359517296016162, -0.2367375666591396, 0.9449375672599529, 6.160003507912809, 0.11330765955155596, 0.83612665806872)"
1970/01/01/01:00:05.513000,202,5,506000000,,"['FL_calf_joint', 'FL_hip_joint', 'FL_thigh_joint', 'FR_calf_joint', 'FR_hip_joint', 'FR_thigh_joint', 'RL_calf_joint', 'RL_hip_joint', 'RL_thigh_joint', 'RR_calf_joint', 'RR_hip_joint', 'RR_thigh_joint']","(-2.1276441723652617, 0.0020913495222059098, 1.049454978202137, -2.1262365432376136, -0.0016074682082827252, 1.0477536417629159, -2.134632949800623, 0.0012815882055754457, 1.044466734356165, -2.1333658711622903, -0.0006039936178092731, 1.0449932116561431)","(0.12712417676980264, 0.000780028628669119, -0.06587083069259224, 0.11622833082865776, -0.00042231073430454, -0.05999217421769407, 0.14721090138264503, 0.0011284323449133543, -0.07556640843114369, 0.14245450261882558, -0.00088660127110791, -0.07322059321490113)","(5.222076604818343, -0.3810945792632268, -0.011107505234949189, 5.034078844466305, 0.29185618012365283, 0.2598623469242137, 6.359535713717432, -0.23741951888963347, 0.9449501006787144, 6.160000997582006, 0.11400638952786374, 0.8361107187032331)"
1970/01/01/01:00:05.526000,203,5,526000000,,"['FL_calf_joint', 'FL_hip_joint', 'FL_thigh_joint', 'FR_calf_joint', 'FR_hip_joint', 'FR_thigh_joint', 'RL_calf_joint', 'RL_hip_joint', 'RL_thigh_joint', 'RR_calf_joint', 'RR_hip_joint', 'RR_thigh_joint']","(-2.127644212117305, 0.002094209817220083, 1.049454875665683, -2.1262365461765764, -0.0016102364156207472, 1.0477536812656565, -2.1346330518909165, 0.0012853927980751578, 1.044466663826574, -2.1333658530966604, -0.0006078921060810316, 1.0449932981709633)","(0.12712390725588266, 0.0007796891249621737, -0.06587066641530404, 0.11622831317789148, -0.0004219906325623103, -0.05999216552584967, 0.1472108964412751, 0.0011279118496930799, -0.07556638065858992, 0.14245437954425136, -0.0008860589002467764, -0.07322053346147134)","(5.222085377609793, -0.38160740470668914, -0.011090033926752618, 5.034079479531862, 0.29235254583123277, 0.25985518417261394, 6.359554120180407, -0.2381012344034387, 0.9449626295952012, 6.1599984843614335, 0.1147048753966043, 0.8360947871241757)"
1970/01/01/01:00:05.548000,204,5,546000000,,"['FL_calf_joint', 'FL_hip_joint', 'FL_thigh_joint', 'FR_calf_joint', 'FR_hip_joint', 'FR_thigh_joint', 'RL_calf_joint', 'RL_hip_joint', 'RL_thigh_joint', 'RR_calf_joint', 'RR_hip_joint', 'RR_thigh_joint']","(-2.127644251834777, 0.0020970690679895654, 1.0494547731767536, -2.1262365490991844, -0.0016130036195445285, 1.0477537207566447, -2.134633153918446, 0.0012891960695489146, 1.044466593322129, -2.13336583501619, -0.0006117892316028772, 1.0449933846431119)","(0.12712363783591268, 0.0007793497438150905, -0.06587050219698394, 0.11622829552817723, -0.00042167064863608686, -0.059992156836635405, 0.14721089148896538, 0.0011273915324751963, -0.07556635288944182, 0.14245425650548124, -0.0008855167268188612, -0.0732204737257675)","(5.2220941436133295, -0.38212004291846324, -0.011072570819806948, 5.034080111647143, 0.2928487316268892, 0.2598480235530301, 6.359572515412085, -0.23878271320159478, 0.9449751540044908, 6.159995968254102, 0.11540311715453544, 0.836078863333381)"
1970/01/01/01:00:05.566000,205,5,566000000,,"['FL_calf_joint', 'FL_hip_joint', 'FL_thigh_joint', 'FR_calf_joint', 'FR_hip_joint', 'FR_thigh_joint', 'RL_calf_joint', 'RL_hip_joint', 'RL_thigh_joint', 'RR_calf_joint', 'RR_hip_joint', 'RR_thigh_joint']","(-2.1276442915176776, 0.002099927274842983, 1.0494546707353365, -2.126236552005482, -0.0016157698204040116, 1.04775376023587, -2.1346332558832577, 0.001292998020005598, 1.0444665228428445, -2.1333658169208967, -0.0006156849943819154, 1.0449934710725834)","(0.1271233685098277, 0.0007790104852085598, -0.06587033803723585, 0.1162282778797335, -0.00042135078226560523, -0.05999214815015537, 0.14721088652542688, 0.0011268713936642902, -0.07556632512345897, 0.14245413350245295, -0.0008849747503128617, -0.07322041400768271)","(5.2221029028311445, -0.38263249395709353, -0.011055115912841251, 5.034080740818563, 0.2933447375746613, 0.2598408650664071, 6.359590899419272, -0.23946395528608455, 0.9449876739065115, 6.159993449262902, 0.1161011148021674, 0.8360629473314785)"
1970/01/01/01:00:05.587000,206,5,586000000,,"['FL_calf_joint', 'FL_hip_joint', 'FL_thigh_joint', 'FR_calf_joint', 'FR_hip_joint', 'FR_thigh_joint', 'RL_calf_joint', 'RL_hip_joint', 'RL_thigh_joint', 'RR_calf_joint', 'RR_hip_joint', 'RR_thigh_joint']","(-2.1276443311660103, 0.002102784438112515, 1.0494545683414174, -2.1262365548955096, -0.0016185350185544678, 1.0477537997033242, -2.134633357785394, 0.001296798649461195, 1.0444664523887397, -2.133365798810795, -0.0006195793944359096, 1.0449935574593718)","(0.12712309927753634, 0.000778671349117919, -0.06587017393644357, 0.11622826023246823, -0.0004210310334416481, -0.059992139466025496, 0.14721088155115497, 0.0011263514332363446, -0.0755662973611783, 0.14245401053513332, -0.0008844329707037919, -0.07322035430721432)","(5.22211165526427, -0.3831447578834233, -0.011037669203382838, 5.034081367052772, 0.29384056373647927, 0.2598337087150068, 6.359609272210632, -0.24014496066146807, 0.9450001892965484, 6.159990927392118, 0.11679886833952122, 0.8360470391174175)"
1970/01/01/01:00:05.606000,207,5,606000000,,"['FL_calf_joint', 'FL_hip_joint', 'FL_thigh_joint', 'FR_calf_joint', 'FR_hip_joint', 'FR_thigh_joint', 'RL_calf_joint', 'RL_hip_joint', 'RL_thigh_joint', 'RR_calf_joint', 'RR_hip_joint', 'RR_thigh_joint']","(-2.1276443707797768, 0.0021056405581303395, 1.0494544659949891, -2.126236557769305, -0.0016212992143422866, 1.0477538391590002, -2.134633459624898, 0.001300597957942351, 1.0444663819598325, -2.1333657806858994, -0.0006234724317897289, 1.0449936438034753)","(0.12712283013870773, 0.0007783323355780603, -0.06587000989442891, 0.1162282425868456, -0.00042071140216593954, -0.05999213078499982, 0.1472108765659258, 0.0011258316514517084, -0.07556626960240682, 0.14245388760345562, -0.0008838913875887687, -0.07322029462428994)","(5.222120400914039, -0.38365683475696744, -0.011020230687213695, 5.034081990357058, 0.29433621017475065, 0.2598265544984128, 6.359627633791669, -0.24082572933259952, 0.9450127001738997, 6.1599884026451495, 0.11749637776931514, 0.8360311386913681)"
1970/01/01/01:00:05.625000,208,5,626000000,,"['FL_calf_joint', 'FL_hip_joint', 'FL_thigh_joint', 'FR_calf_joint', 'FR_hip_joint', 'FR_thigh_joint', 'RL_calf_joint', 'RL_hip_joint', 'RL_thigh_joint', 'RR_calf_joint', 'RR_hip_joint', 'RR_thigh_joint']","(-2.127644410358984, 0.0021084956352313, 1.0494543636960323, -2.126236560626909, -0.0016240624081227395, 1.0477538786028902, -2.134633561401814, 0.0013043959454810405, 1.0444663115561372, -2.1333657625462283, -0.0006273641064789004, 1.044993730104891)","(0.12712256109328512, 0.0007779934446435957, -0.06586984591112481, 0.11622822494277067, -0.00042039188822307066, -0.059992122106579934, 0.1472108715701584, 0.0011253120485315352, -0.0755662418474539, 0.14245376470720172, -0.0008833500006243422, -0.0732202349587132)","(5.222129139782571, -0.38416872463769713, -0.011002800365311982, 5.034082610735696, 0.2948316769530619, 0.2598194024207601, 6.359645984171931, -0.2415062613063717, 0.9450252065345712, 6.15998587502538, 0.11819364309752471, 0.8360152460530021)"
1970/01/01/01:00:05.649000,209,5,646000000,,"['FL_calf_joint', 'FL_hip_joint', 'FL_thigh_joint', 'FR_calf_joint', 'FR_hip_joint', 'FR_thigh_joint', 'RL_calf_joint', 'RL_hip_joint', 'RL_thigh_joint', 'RR_calf_joint', 'RR_hip_joint', 'RR_thigh_joint']","(-2.1276444499036344, 0.0021113496697493517, 1.049454261444538, -2.1262365634683587, -0.0016268246002439923, 1.047753918034985, -2.1346336631161877, 0.0013081926121216725, 1.044466241177668, -2.1333657443917966, -0.000631254418547833, 1.0449938163636183)","(0.12712229214125204, 0.0007776546763388407, -0.06586968198664502, 0.1162282073004387, -0.00042007249146279327, -0.05999211343079527, 0.14721086656391486, 0.0011247926245004027, -0.07556621409630304, 0.14245364184636233, -0.0008828088097307154, -0.07322017531023947)","(5.22213787187163, -0.38468042758542015, -0.010985378234347976, 5.034083228196594, 0.29532696413292053, 0.2598122524824602, 6.359664323356692, -0.24218655659142316, 0.9450377083787863, 6.159983344535805, 0.11889066432869069, 0.835999361202606)"
1970/01/01/01:00:05.666000,210,5,666000000,,"['FL_calf_joint', 'FL_hip_joint', 'FL_thigh_joint', 'FR_calf_joint', 'FR_hip_joint', 'FR_thigh_joint', 'RL_calf_joint', 'RL_hip_joint', 'RL_thigh_joint', 'RR_calf_joint', 'RR_hip_joint', 'RR_thigh_joint']","(-2.127644489413738, 0.002114202662020226, 1.0494541592404918, -2.126236566293688, -0.0016295857910524347, 1.0477539574552805, -2.1346337647680587, 0.0013119879579139848, 1.0444661708244372, -2.13336572622262, -0.0006351433680498175, 1.044993902579657)","(0.12712202328217054, 0.0007773160305401869, -0.06586951812080605, 0.11622818965994336, -0.0004197532120045537, -0.05999210475771999, 0.14721086154699667, 0.00112427337946606, -0.07556618634910657, 0.14245351902079179, -0.0008822678145561863, -0.0732201156790359)","(5.2221465971838, -0.3851919436612745, -0.010967964291473342, 5.034083842744708, 0.2958220717766547, 0.2598051046838257, 6.359682651353903, -0.24286661519771124, 0.945050205702834, 6.159980811181259, 0.11958744147187686, 0.8359834841388971)"
1970/01/01/01:00:05.686000,211,5,686000000,,"['FL_calf_joint', 'FL_hip_joint', 'FL_thigh_joint', 'FR_calf_joint', 'FR_hip_joint', 'FR_thigh_joint', 'RL_calf_joint', 'RL_hip_joint', 'RL_thigh_joint', 'RR_calf_joint', 'RR_hip_joint', 'RR_thigh_joint']","(-2.127644528889304, 0.002117054612379654, 1.0494540570838744, -2.126236569102936, -0.0016323459808944563, 1.0477539968637677, -2.1346338663574747, 0.0013157819829157091, 1.044466100496459, -2.133365708038717, -0.0006390309550488027, 1.0449939887530109)","(0.12712175451596153, 0.0007769775072663456, -0.06586935431348089, 0.11622817202144298, -0.00041943404964599505, -0.05999209608737201, 0.14721085651976587, 0.0011237543136492626, -0.07556615860598745, 0.14245339623034592, -0.0008817270147913394, -0.07322005606483634)","(5.222155315720564, -0.38570327292592915, -0.010950558534120525, 5.0340844543848995, 0.2963169999465747, 0.2597979590269527, 6.359700968169978, -0.24354643713665486, 0.9450626985065913, 6.159978274964028, 0.12028397453737771, 0.8359676148607005)"
1970/01/01/01:00:05.706000,212,5,706000000,,"['FL_calf_joint', 'FL_hip_joint', 'FL_thigh_joint', 'FR_calf_joint', 'FR_hip_joint', 'FR_thigh_joint', 'RL_calf_joint', 'RL_hip_joint', 'RL_thigh_joint', 'RR_calf_joint', 'RR_hip_joint', 'RR_thigh_joint']","(-2.1276445683303358, 0.002119905521165144, 1.049453954974675, -2.1262365718961345, -0.0016351051701217756, 1.0477540362604412, -2.134633967884473, 0.0013195746871925707, 1.0444660301937425, -2.1333656898401063, -0.0006429171796140665, 1.0449940748836797)","(0.12712148584275917, 0.0007766391066293513, -0.06586919056503256, 0.1162281543849491, -0.00041911500431004024, -0.05999208741979694, 0.1472108514821196, 0.0011232354271717548, -0.07556613086684655, 0.1424532734749871, -0.0008811864102812239, -0.07321999646750257)","(5.222164027485307, -0.3862144154389433, -0.010933160960400423, 5.034085063124713, 0.2968117487046662, 0.2597908155133422, 6.3597192738148465, -0.24422602241914448, 0.9450751867868077, 6.159975735888611, 0.12098026353476853, 0.8359517533681476)"
1970/01/01/01:00:05.726000,213,5,726000000,,"['FL_calf_joint', 'FL_hip_joint', 'FL_thigh_joint', 'FR_calf_joint', 'FR_hip_joint', 'FR_thigh_joint', 'RL_calf_joint', 'RL_hip_joint', 'RL_thigh_joint', 'RR_calf_joint', 'RR_hip_joint', 'RR_thigh_joint']","(-2.1276446077368494, 0.002122755388715092, 1.049453852912876, -2.1262365746733156, -0.0016378633590772296, 1.0477540756452957, -2.1346340693491017, 0.0013233660708174, 1.0444659599162982, -2.1333656716268026, -0.0006468020418273213, 1.044994160971668)","(0.1271212172621213, 0.0007763008285666112, -0.06586902687494765, 0.11622813675072487, -0.0004187960759528181, -0.05999207875492791, 0.1472108464343299, 0.001122716719998067, -0.07556610313214286, 0.14245315075478754, -0.0008806460008270007, -0.07321993688705833)","(5.222172732479728, -0.3867253712622081, -0.010915771567997279, 5.034085668967713, 0.29730631811191904, 0.25978367414307973, 6.359737568292664, -0.2449053710610362, 0.9450876705439326, 6.159973193958352, 0.12167630847897051, 0.8359358996582212)"
1970/01/01/01:00:05.746000,214,5,746000000,,"['FL_calf_joint', 'FL_hip_joint', 'FL_thigh_joint', 'FR_calf_joint', 'FR_hip_joint', 'FR_thigh_joint', 'RL_calf_joint', 'RL_hip_joint', 'RL_thigh_joint', 'RR_calf_joint', 'RR_hip_joint', 'RR_thigh_joint']","(-2.127644647108852, 0.0021256042153678933, 1.0494537508984614, -2.126236577434515, -0.0016406205481072078, 1.047754115018325, -2.1346341707514, 0.0013271561338719096, 1.044465889664135, -2.1333656533988252, -0.0006506855417720558, 1.044994247016981)","(0.12712094877411906, 0.0007759626729723342, -0.06586886324370055, 0.11622811911875633, -0.00041847726444243344, -0.05999207009298232, 0.14721084137632312, 0.0011221981923806687, -0.07556607540156181, 0.14245302806949145, -0.0008801057861360633, -0.07321987732365108)","(5.222181430705817, -0.38723614045714677, -0.010898390352410026, 5.034086271919747, 0.29780070823099064, 0.2597765349179066, 6.359755851612139, -0.24558448307580227, 0.9451001497761441, 6.159970649177038, 0.12237210938264163, 0.8359200537315284)"
1970/01/01/01:00:05.764000,215,5,766000000,,"['FL_calf_joint', 'FL_hip_joint', 'FL_thigh_joint', 'FR_calf_joint', 'FR_hip_joint', 'FR_thigh_joint', 'RL_calf_joint', 'RL_hip_joint', 'RL_thigh_joint', 'RR_calf_joint', 'RR_hip_joint', 'RR_thigh_joint']","(-2.127644686446356, 0.002128452001463721, 1.0494536489314186, -2.1262365801797607, -0.0016433767375580999, 1.0477541543795246, -2.1346342720914118, 0.0013309448764413645, 1.04446581943726, -2.133365635156192, -0.0006545676795495226, 1.0449943330196225)","(0.12712068037858354, 0.0007756246400475921, -0.06586869967087036, 0.11622810148916471, -0.0004181585696946998, -0.05999206143364207, 0.14721083630816378, 0.0011216798443688819, -0.07556604767532052, 0.14245290541913208, -0.0008795657659849055, -0.07321981777672638)","(5.222190122168621, -0.38774672308280017, -0.010881017312994679, 5.034086871985781, 0.2982949191234452, 0.2597693978392649, 6.359774123780049, -0.24626335848041617, 0.9451126244834701, 6.159968101547227, 0.12306766626260543, 0.8359042155855468)"
1970/01/01/01:00:05.791000,216,5,786000000,,"['FL_calf_joint', 'FL_hip_joint', 'FL_thigh_joint', 'FR_calf_joint', 'FR_hip_joint', 'FR_thigh_joint', 'RL_calf_joint', 'RL_hip_joint', 'RL_thigh_joint', 'RR_calf_joint', 'RR_hip_joint', 'RR_thigh_joint']","(-2.1276447257493736, 0.002131298747342747, 1.0494535470117246, -2.1262365829090832, -0.0016461319277709663, 1.0477541937288883, -2.1346343733691766, 0.001334732298621688, 1.0444657492356804, -2.1333656168989217, -0.0006584484552609737, 1.0449944189796012)","(0.12712041207522248, 0.0007752867295527282, -0.06586853615645562, 0.11622808386190617, -0.0004178399917281713, -0.05999205277700175, 0.1472108312300648, 0.0011211616759815696, -0.07556601995359531, 0.14245278280357782, -0.0008790259401920337, -0.07321975824651797)","(5.222198806869465, -0.3882571192020616, -0.010863652445468774, 5.03408746917167, 0.2987889508500994, 0.25976226290747867, 6.35979238480357, -0.24694199729219804, 0.9451250946631402, 6.159965551074231, 0.12376297913484906, 0.8358883852189608)"
1970/01/01/01:00:05.811000,217,5,806000000,,"['FL_calf_joint', 'FL_hip_joint', 'FL_thigh_joint', 'FR_calf_joint', 'FR_hip_joint', 'FR_thigh_joint', 'RL_calf_joint', 'RL_hip_joint', 'RL_thigh_joint', 'RR_calf_joint', 'RR_hip_joint', 'RR_thigh_joint']","(-2.1276447650179193, 0.002134144453346032, 1.049453445139367, -2.1262365856225145, -0.0016488861190921966, 1.0477542330664136, -2.1346344745847388, 0.0013385184005132444, 1.0444656790594014, -2.133365598627032, -0.0006623278690147671, 1.0449945048969234)","(0.1271201438641657, 0.0007749489417084893, -0.06586837270076074, 0.11622806623723356, -0.00041752153035004043, -0.05999204412345501, 0.14721082614199976, 0.0011206436874888646, -0.07556599223639239, 0.1424526602227042, -0.0008784863085084402, -0.07321969873276123)","(5.222207484811571, -0.38876732887617255, -0.010846295748156654, 5.0340880634803025, 0.2992828034739066, 0.2597551301228893, 6.35981063468998, -0.24762039952904105, 0.9451375603161379, 6.159962997761315, 0.1244580480196861, 0.8358725626293959)"
1970/01/01/01:00:05.830000,218,5,826000000,,"['FL_calf_joint', 'FL_hip_joint', 'FL_thigh_joint', 'FR_calf_joint', 'FR_hip_joint', 'FR_thigh_joint', 'RL_calf_joint', 'RL_hip_joint', 'RL_thigh_joint', 'RR_calf_joint', 'RR_hip_joint', 'RR_thigh_joint']","(-2.1276448042520073, 0.0021369891198155244, 1.0494533433143296, -2.126236588320083, -0.0016516393118628514, 1.047754272392095, -2.1346345757381373, 0.001342303182222615, 1.0444656089084283, -2.1333655803405414, -0.0006662059209281423, 1.044994590771597)","(0.12711987574530773, 0.0007746112763596247, -0.0658682093034875, 0.1162280486151285, -0.0004172031855641963, -0.059992035472300725, 0.14721082104394922, 0.001120125878808199, -0.07556596452362731, 0.1424525376766228, -0.000877946870778143, -0.07321963923566881)","(5.222216155998895, -0.3892773521658722, -0.01082894721677724, 5.034088654918765, 0.29977647705391336, 0.259747999486599, 6.359828873446092, -0.24829856521186564, 0.9451500214420493, 6.1599604416109, 0.12515287293597563, 0.8358567478172214)"
1970/01/01/01:00:05.846000,219,5,846000000,,"['FL_calf_joint', 'FL_hip_joint', 'FL_thigh_joint', 'FR_calf_joint', 'FR_hip_joint', 'FR_thigh_joint', 'RL_calf_joint', 'RL_hip_joint', 'RL_thigh_joint', 'RR_calf_joint', 'RR_hip_joint', 'RR_thigh_joint']","(-2.1276448434516517, 0.0021398327470931733, 1.0494532415365914, -2.126236591001815, -0.0016543915064275438, 1.047754311705929, -2.1346346768294167, 0.0013460866438634866, 1.0444655387827684, -2.1333655620394705, -0.0006700826111307734, 1.0449946766036318)","(0.12711960771844819, 0.0007742737335545632, -0.06586804596462914, 0.11622803099568574, -0.0004168849572056108, -0.05999202682399808, 0.1472108159362207, 0.0011196082500571393, -0.07556593681561334, 0.14245241516516516, -0.0008774076268806938, -0.07321957975486004)","(5.2222248204333575, -0.38978718913377347, -0.010811606848290523, 5.034089243490108, 0.30026997165312547, 0.25974087099910326, 6.3598471010788, -0.24897649436103464, 0.945162478038864, 6.159957882628515, 0.1258474539051635, 0.8358409407769993)"
1970/01/01/01:00:05.866000,220,5,866000000,,"['FL_calf_joint', 'FL_hip_joint', 'FL_thigh_joint', 'FR_calf_joint', 'FR_hip_joint', 'FR_thigh_joint', 'RL_calf_joint', 'RL_hip_joint', 'RL_thigh_joint', 'RR_calf_joint', 'RR_hip_joint', 'RR_thigh_joint']","(-2.127644882616867, 0.0021426753355235917, 1.0494531398061362, -2.1262365936677377, -0.0016571427031255581, 1.0477543510079128, -2.134634777858616, 0.0013498687855566516, 1.0444654686824215, -2.1333655437238352, -0.000673957939750558, 1.0449947623930376)","(0.12711933978342313, 0.0007739363132080843, -0.06586788268419497, 0.11622801337911862, -0.0004165668453385581, -0.05999201817876527, 0.14721081081869103, 0.0011190908012530239, -0.07556590911229948, 0.14245229268825435, -0.0008768685763504203, -0.07321952029038867)","(5.222233478119841, -0.3902968398402626, -0.010794274642067225, 5.034089829199454, 0.3007632873322842, 0.2597337446623433, 6.359865317595979, -0.24965418699813394, 0.9451749301076077, 6.159955320817115, 0.12654179094952075, 0.8358251415097525)"
1970/01/01/01:00:05.888000,221,5,886000000,,"['FL_calf_joint', 'FL_hip_joint', 'FL_thigh_joint', 'FR_calf_joint', 'FR_hip_joint', 'FR_thigh_joint', 'RL_calf_joint', 'RL_hip_joint', 'RL_thigh_joint', 'RR_calf_joint', 'RR_hip_joint', 'RR_thigh_joint']","(-2.127644921747672, 0.00214551688544784, 1.0494530381229445, -2.126236596317879, -0.0016598929023015074, 1.0477543902980422, -2.1346348788257776, 0.001353649607427343, 1.0444653986073913, -2.133365525393657, -0.0006778319069278282, 1.0449948481398232)","(0.12711907194020886, 0.0007735990153269183, -0.06586771946211376, 0.11622799576521704, -0.0004162488498068894, -0.059992009535951754, 0.14721080569135578, 0.0011185735325693021, -0.07556588141370747, 0.14245217024590115, -0.000876329719291735, -0.07321946084226508)","(5.222242129060387, -0.3908063043482587, -0.010776950590725476, 5.03409041205063, 0.301256424152118, 0.2597266204749328, 6.359883523004358, -0.2503316431465354, 0.9451873776472354, 6.159952756179806, 0.1272358840933711, 0.8358093500112103)"
1970/01/01/01:00:05.908000,222,5,906000000,,"['FL_calf_joint', 'FL_hip_joint', 'FL_thigh_joint', 'FR_calf_joint', 'FR_hip_joint', 'FR_thigh_joint', 'RL_calf_joint', 'RL_hip_joint', 'RL_thigh_joint', 'RR_calf_joint', 'RR_hip_joint', 'RR_thigh_joint']","(-2.1276449608440835, 0.0021483573972131964, 1.0494529364870022, -2.126236598952266, -0.0016626421042964523, 1.0477544295763144, -2.134634979730939, 0.001357429109606123, 1.0444653285576813, -2.1333655070489534, -0.0006817045128064692, 1.044994933844002)","(0.12711880418887253, 0.0007732618400070819, -0.06586755629847361, 0.11622797815424551, -0.00041593097052692403, -0.05999200089606287, 0.14721080055433738, 0.001118056443993749, -0.07556585371980117, 0.1424520478380847, -0.0008757910554135192, -0.07321940141051445)","(5.222250773259928, -0.3913155827189028, -0.010759634696554887, 5.034090992048534, 0.30174938217347225, 0.25971949843913034, 6.3599017173098895, -0.25100886282978424, 0.9451998206593198, 6.159950188721179, 0.12792973336111302, 0.8357935662796684)"
1970/01/01/01:00:05.933000,223,5,926000000,,"['FL_calf_joint', 'FL_hip_joint', 'FL_thigh_joint', 'FR_calf_joint', 'FR_hip_joint', 'FR_thigh_joint', 'RL_calf_joint', 'RL_hip_joint', 'RL_thigh_joint', 'RR_calf_joint', 'RR_hip_joint', 'RR_thigh_joint']","(-2.127644999906117, 0.002151196871161609, 1.0494528348982861, -2.1262366015709198, -0.0016653903094479006, 1.0477544688427276, -2.134635080574143, 0.0013612072922324359, 1.044465258533295, -2.133365488689745, -0.000685575757537471, 1.0449950195055848)","(0.12711853652908928, 0.000772924787077773, -0.06586739319309622, 0.11622796054605128, -0.0004156132074578041, -0.05999199225887493, 0.1472107954078082, 0.001117539535638372, -0.07556582603101075, 0.14245192546475166, -0.0008752525845355653, -0.07321934199486499)","(5.222259410721438, -0.3918246750144069, -0.010742326950868408, 5.034091569197715, 0.302242161457835, 0.2597123785543844, 6.359919900521247, -0.251685846073616, 0.9452122591416857, 6.159947618445029, 0.12862333877949944, 0.8357777903122879)"
1970/01/01/01:00:05.947000,224,5,946000000,,"['FL_calf_joint', 'FL_hip_joint', 'FL_thigh_joint', 'FR_calf_joint', 'FR_hip_joint', 'FR_thigh_joint', 'RL_calf_joint', 'RL_hip_joint', 'RL_thigh_joint', 'RR_calf_joint', 'RR_hip_joint', 'RR_thigh_joint']","(-2.1276450389337924, 0.0021540353076412444, 1.0494527333567802, -2.1262366041738687, -0.001668137518098689, 1.0477545080972792, -2.1346351813554305, 0.0013649841554475017, 1.044465188534227, -2.1333654703160505, -0.0006894456412789296, 1.0449951051245847)","(0.12711826896092493, 0.0007725878566278354, -0.06586723014630445, 0.11622794294096479, -0.0004152955605218104, -0.05999198362441102, 0.14721079025163442, 0.0011170228074164857, -0.07556579834687616, 0.1424518031258633, -0.0008747143064698182, -0.07321928259539791)","(5.222268041448535, -0.39233358129712914, -0.01072502735378189, 5.034092143501411, 0.3027347620656962, 0.2597052608211254, 6.359938072643942, -0.2523625929030605, 0.9452246930952632, 6.159945045354123, 0.1293167003747254, 0.8357620221070918)"
1970/01/01/01:00:05.966000,225,5,966000000,,"['FL_calf_joint', 'FL_hip_joint', 'FL_thigh_joint', 'FR_calf_joint', 'FR_hip_joint', 'FR_thigh_joint', 'RL_calf_joint', 'RL_hip_joint', 'RL_thigh_joint', 'RR_calf_joint', 'RR_hip_joint', 'RR_thigh_joint']","(-2.127645077927127, 0.002156872706995827, 1.0494526318624633, -2.126236606761136, -0.0016708837305863256, 1.0477545473399665, -2.13463528207484, 0.0013687596994005347, 1.0444651185604812, -2.13336545192789, -0.0006933141641960461, 1.044995190701015)","(0.1271180014842313, 0.0007722510486493984, -0.06586706715772861, 0.11622792533887563, -0.000414978029664768, -0.05999197499282636, 0.147210785085936, 0.001116506259511297, -0.0755657706678808, 0.14245168082115528, -0.0008741762210886431, -0.07321922321185215)","(5.222276665445163, -0.3928423016286598, -0.010707735901338555, 5.034092714963678, 0.3032271840575891, 0.2596981452396576, 6.359956233685649, -0.2530391033460216, 0.9452371225221464, 6.159942469453055, 0.13000981817644247, 0.8357462616614972)"
1970/01/01/01:00:05.990000,226,5,986000000,,"['FL_calf_joint', 'FL_hip_joint', 'FL_thigh_joint', 'FR_calf_joint', 'FR_hip_joint', 'FR_thigh_joint', 'RL_calf_joint', 'RL_hip_joint', 'RL_thigh_joint', 'RR_calf_joint', 'RR_hip_joint', 'RR_thigh_joint']","(-2.1276451168861428, 0.002159709069571747, 1.0494525304153175, -2.1262366093327447, -0.0016736289472518706, 1.0477545865707878, -2.134635382732413, 0.0013725339242451895, 1.044465048612059, -2.1333654335252845, -0.000697181326455798, 1.0449952762348893)","(0.12711773409894342, 0.000771914363024893, -0.06586690422740972, 0.1162279077398636, -0.0004146606148267619, -0.05999196636391556, 0.14721077991064574, 0.0011159898919307506, -0.07556574299373353, 0.1424515585509951, -0.0008736383282517156, -0.0732191638445462)","(5.222285282716092, -0.3933508360716544, -0.010690452589989796, 5.034093283589177, 0.3037194274944406, 0.25969103181109676, 6.359974383653728, -0.25371537742959643, 0.9452495474203789, 6.159939890745793, 0.13070269221319322, 0.8357305089718232)"
1970/01/01/01:00:06.018000,227,6,6000000,,"['FL_calf_joint', 'FL_hip_joint', 'FL_thigh_joint', 'FR_calf_joint', 'FR_hip_joint', 'FR_thigh_joint', 'RL_calf_joint', 'RL_hip_joint', 'RL_thigh_joint', 'RR_calf_joint', 'RR_hip_joint', 'RR_thigh_joint']","(-2.127645155810857, 0.0021625443957171697, 1.0494524290153233, -2.126236611888716, -0.001676373168432832, 1.0477546257897412, -2.1346354833281884, 0.001376306830139562, 1.044464978688957, -2.1333654151082513, -0.0007010471282322683, 1.0449953617262224)","(0.12711746680498415, 0.0007715777998173729, -0.06586674135539843, 0.11622789014402804, -0.00041434331596156243, -0.059991957737798085, 0.14721077472608154, 0.0011154737046741056, -0.07556571532477233, 0.14245143631501575, -0.0008731006276905413, -0.07321910449314627)","(5.222293893264475, -0.3938591846883047, -0.010673177416331892, 5.034093849380871, 0.30421149243661016, 0.2596839205348638, 6.359992522554177, -0.25439141518282793, 0.94526196778989, 6.159937309235472, 0.1313953225158126, 0.8357147640360532)"
1970/01/01/01:00:06.041000,228,6,26000000,,"['FL_calf_joint', 'FL_hip_joint', 'FL_thigh_joint', 'FR_calf_joint', 'FR_hip_joint', 'FR_thigh_joint', 'RL_calf_joint', 'RL_hip_joint', 'RL_thigh_joint', 'RR_calf_joint', 'RR_hip_joint', 'RR_thigh_joint']","(-2.127645194701291, 0.0021653786857793733, 1.0494523276624612, -2.1262366144290734, -0.0016791163944702703, 1.047754664996826, -2.134635583862205, 0.0013800784172488534, 1.0444649087911717, -2.133365396676811, -0.0007049115697101982, 1.0449954471750278)","(0.1271171996023179, 0.000771241358958347, -0.06586657854179426, 0.11622787255118754, -0.0004140261328981109, -0.059991949114333316, 0.1472107695319554, 0.0011149576978327802, -0.07556568766068054, 0.1424513141134096, -0.00087256311933946, -0.07321904515779394)","(5.222302497094409, -0.3943673475408032, -0.010655910377114997, 5.034094412343347, 0.30470337894534405, 0.259676811411656, 6.360010650395003, -0.2550672166353372, 0.9452743836342088, 6.159934724926229, 0.13208770911585907, 0.8356990268509721)"
1970/01/01/01:00:06.046000,229,6,46000000,,"['FL_calf_joint', 'FL_hip_joint', 'FL_thigh_joint', 'FR_calf_joint', 'FR_hip_joint', 'FR_thigh_joint', 'RL_calf_joint', 'RL_hip_joint', 'RL_thigh_joint', 'RR_calf_joint', 'RR_hip_joint', 'RR_thigh_joint']","(-2.1276452335574643, 0.002168211940103859, 1.0494522263567116, -2.1262366169538414, -0.0016818586257016932, 1.0477547041920383, -2.134635684334506, 0.0013838486857409293, 1.0444648389187048, -2.1333653782309847, -0.0007087746510725523, 1.0449955325813232)","(0.1271169324908233, 0.0007709050404924106, -0.06586641578623574, 0.11622785496165795, -0.0004137090656442698, -0.059991940493733374, 0.14721076432844754, 0.0011144418713985036, -0.07556566000176487, 0.14245119194589886, -0.000872025802977126, -0.07321898583819222)","(5.222311094210219, -0.39487532469168735, -0.010638651468509952, 5.034094972479471, 0.30519508708062, 0.25966970444250814, 6.360028767181983, -0.2557427818181987, 0.9452867949512603, 6.159932137821507, 0.132779852046299, 0.8356832974141614)"
1970/01/01/01:00:06.066000,230,6,66000000,,"['FL_calf_joint', 'FL_hip_joint', 'FL_thigh_joint', 'FR_calf_joint', 'FR_hip_joint', 'FR_thigh_joint', 'RL_calf_joint', 'RL_hip_joint', 'RL_thigh_joint', 'RR_calf_joint', 'RR_hip_joint', 'RR_thigh_joint']","(-2.127645272379402, 0.0021710441590414575, 1.049452125098055, -2.126236619463036, -0.0016845998624610559, 1.0477547433753802, -2.1346357847451243, 0.0013876176357889847, 1.044464769071551, -2.1333653597707922, -0.0007126363725111773, 1.0449956179451236)","(0.12711666547052544, 0.0007705688443634827, -0.06586625308903206, 0.1162278373752879, -0.00041339211417580754, -0.05999193187579816, 0.14721075911561676, 0.0011139262254095462, -0.07556563234803099, 0.14245106981260905, -0.0008714886785363336, -0.07321892653454355)","(5.222319684616211, -0.39538311620411987, -0.010621400686795512, 5.034095529793696, 0.3056866169027091, 0.25966259962581056, 6.360046872923034, -0.25641811076186477, 0.9452992017425526, 6.1599295479256595, 0.13347175133989783, 0.8356675757211756)"
1970/01/01/01:00:06.089000,231,6,86000000,,"['FL_calf_joint', 'FL_hip_joint', 'FL_thigh_joint', 'FR_calf_joint', 'FR_hip_joint', 'FR_thigh_joint', 'RL_calf_joint', 'RL_hip_joint', 'RL_thigh_joint', 'RR_calf_joint', 'RR_hip_joint', 'RR_thigh_joint']","(-2.1276453111671216, 0.0021738753429394464, 1.0494520238864684, -2.126236621956682, -0.0016873401050894188, 1.047754782546849, -2.1346358850941067, 0.0013913852675733196, 1.0444646992497066, -2.1333653412962548, -0.0007164967342232487, 1.044995703266446)","(0.12711639854134466, 0.0007702327705090148, -0.06586609045016001, 0.11622781979236221, -0.0004130752784646278, -0.05999192326083612, 0.14721075389354976, 0.0011134107598019013, -0.07556560469956342, 0.14245094771361555, -0.0008709517458553657, -0.07321886724679992)","(5.222328268316689, -0.39589072213987014, -0.010604158029329236, 5.034096084289514, 0.3061779684716596, 0.25965549696247514, 6.3600649676248775, -0.25709320349952774, 0.9453116040100288, 6.159926955242588, 0.13416340703050805, 0.835651861770142)"
1970/01/01/01:00:06.107000,232,6,106000000,,"['FL_calf_joint', 'FL_hip_joint', 'FL_thigh_joint', 'FR_calf_joint', 'FR_hip_joint', 'FR_thigh_joint', 'RL_calf_joint', 'RL_hip_joint', 'RL_thigh_joint', 'RR_calf_joint', 'RR_hip_joint', 'RR_thigh_joint']","(-2.12764534992065, 0.00217670549214688, 1.049451922721932, -2.1262366244347994, -0.0016900793539225134, 1.0477548217064445, -2.1346359853814905, 0.0013951515812760107, 1.0444646294531719, -2.1333653228073928, -0.0007203557364112712, 1.0449957885453065)","(0.1271161317030225, 0.0007698968189481074, -0.06586592786933611, 0.11622780221256201, -0.00041275855828932747, -0.059991914648292864, 0.14721074866195524, 0.0011128954747816472, -0.07556557705615709, 0.14245082564880998, -0.0008704150047676585, -0.07321880797496877)","(5.222336845315613, -0.39639814256183953, -0.010586923491235245, 5.034096635969447, 0.30666914184904254, 0.25964839645367327, 6.360083051293072, -0.25776806006333564, 0.945324001752519, 6.159924359775579, 0.13485481915508524, 0.8356361555564111)"
1970/01/01/01:00:06.130000,233,6,126000000,,"['FL_calf_joint', 'FL_hip_joint', 'FL_thigh_joint', 'FR_calf_joint', 'FR_hip_joint', 'FR_thigh_joint', 'RL_calf_joint', 'RL_hip_joint', 'RL_thigh_joint', 'RR_calf_joint', 'RR_hip_joint', 'RR_thigh_joint']","(-2.127645388640005, 0.002179534607012812, 1.0494518216044284, -2.1262366268974073, -0.0016928176092978475, 1.0477548608541651, -2.134636085607311, 0.0013989165770835754, 1.0444645596819413, -2.133365304304225, -0.0007242133792795258, 1.0449958737817235)","(0.12711586495580188, 0.0007695609896934589, -0.06586576534676615, 0.11622778463615288, -0.00041244195365600176, -0.059991906038668774, 0.14721074342132012, 0.0011123803702356187, -0.07556554941806308, 0.14245070361798273, -0.0008698784551202849, -0.07321874871872738)","(5.222345415618356, -0.3969053775331959, -0.010569697070549, 5.034097184838316, 0.3071601370944665, 0.2596412980974363, 6.360101123936176, -0.2584426804872546, 0.945336394971787, 6.1599217615289374, 0.1355459877492825, 0.8356204570779969)"
1970/01/01/01:00:06.148000,234,6,146000000,,"['FL_calf_joint', 'FL_hip_joint', 'FL_thigh_joint', 'FR_calf_joint', 'FR_hip_joint', 'FR_thigh_joint', 'RL_calf_joint', 'RL_hip_joint', 'RL_thigh_joint', 'RR_calf_joint', 'RR_hip_joint', 'RR_thigh_joint']","(-2.127645427325213, 0.002182362687888073, 1.0494517205339324, -2.1262366293445254, -0.001695554871552929, 1.0477548999900126, -2.134636185771609, 0.0014026802551887485, 1.044464489936006, -2.1333652857867733, -0.000728069663039399, 1.044995958975715)","(0.12711559829936073, 0.0007692252826309213, -0.06586560288232356, 0.1162277670630811, -0.0004121254645862613, -0.05999189743153223, 0.14721073817134828, 0.0011118654461264952, -0.07556552178529569, 0.14245058162141452, -0.000869342096821432, -0.0732186894783286)","(5.222353979228256, -0.3974124271160673, -0.010552478762387296, 5.034097730897279, 0.3076509542674858, 0.2596342018960399, 6.360119185560477, -0.25911706480636415, 0.9453487836693211, 6.159919160505914, 0.13623691284986683, 0.8356047663300783)"
